address,city,floor,latitude,longitude,price,rooms,sq,year,price_per_sq
Podgórze Zabłocie Stanisława Klimeckiego,Kraków,2.0,50.0492242,19.9703793,749000.0,3.0,74.05,2021.0,10114.78730587441
Krowodrza Czarnowiejska,Kraków,2.0,50.0669642,19.9200249,427000.0,2.0,37.0,1970.0,11540.54054054054
Nowa Huta Czyżyny ul. Woźniców,Kraków,2.0,50.0469432,19.997153435836697,414600.0,1.0,34.55,2022.0,12000.000000000002
Podgórze Płaszów Koszykarska,Kraków,0.0,50.0498929,19.9906026,750000.0,4.0,81.4,2021.0,9213.759213759213
Prądnik Czerwony ul. Śliczna,Kraków,1.0,50.0469432,19.997153435836697,756707.4,4.0,82.43,2021.0,9180.0
Stare Miasto,Kraków,0.0,50.0590398,19.93716829792899,949000.0,2.0,84.8,1936.0,11191.037735849057
Prądnik Biały Henryka Pachońskiego,Kraków,6.0,50.0949773,19.920405494289955,405900.0,2.0,41.0,2022.0,9900.0
Dębniki Ruczaj prof. Michała Bobrzyńskiego,Kraków,4.0,50.0206269,19.8981903,699000.0,2.0,60.0,2010.0,11650.0
Podgórze Rzemieślnicza,Kraków,2.0,50.0469432,19.997153435836697,529000.0,3.0,53.84,2021.0,9825.408618127785
Zwierzyniec Wola Justowska Jesionowa,Kraków,0.0,50.067974,19.8748544,899000.0,3.0,74.44,2020.0,12076.84040838259
Podgórze Duchackie ul. Walerego Sławka,Kraków,6.0,50.0242313,19.959569,539000.0,3.0,57.81,2021.0,9323.646427953641
Grzegórzki ul. Fabryczna,Kraków,8.0,50.058444,19.9702351,971904.0,3.0,75.93,2021.0,12799.999999999998
Dębniki Kliny-Zacisze bpa Albina Małysiaka,Kraków,1.0,49.9988318,19.8938784,266500.0,1.0,31.59,2020.0,8436.213991769548
Nowa Huta Czyżyny,Kraków,6.0,50.0816349,20.016490706002102,498000.0,2.0,49.08,2019.0,10146.699266503669
Krowodrza,Kraków,10.0,50.07087985,19.91656311814478,455000.0,3.0,45.0,1976.0,10111.111111111111
Bronowice ul. Bronowicka 5,Kraków,4.0,50.0778251,19.900680986965757,1038636.0,3.0,88.02,2021.0,11800.0
Prądnik Czerwony ul. Celarowska,Kraków,2.0,50.081864,19.9546492,349000.0,2.0,37.06,1980.0,9417.161359956826
Stare Miasto Starowiślna,Kraków,3.0,50.0469432,19.997153435836697,709000.0,2.0,53.4,1926.0,13277.153558052434
Grzegórzki Dąbie Dąbska,Kraków,0.0,50.064613,19.9820189,730000.0,3.0,73.81,2013.0,9890.258772524048
Podgórze Okólna,Kraków,4.0,50.0164142,19.9837781,439000.0,3.0,48.2,1980.0,9107.883817427386
Podgórze ul. Koszykarska,Kraków,2.0,50.0498929,19.9906026,543558.0,3.0,53.0,2021.0,10255.811320754718
Bieżanów-Prokocim Złocień,Kraków,4.0,50.0225216,20.0481276,290829.0,2.0,37.77,2021.0,7699.999999999999
Nowa Huta Okulickiego,Kraków,1.0,50.087129,19.9950474,580000.0,3.0,62.0,2014.0,9354.838709677419
małopolskie,Kraków,3.0,50.0619474,19.9368564,429000.0,2.0,46.69,2021.0,9188.263011351468
Podgórze Duchackie Wola Duchacka,Kraków,5.0,50.0146222,19.953758,546910.0,3.0,60.1,2021.0,9100.0
Bronowice Stańczyka,Kraków,1.0,50.0788285,19.8942504,302111.2,1.0,29.33,2021.0,10300.415956358678
Mistrzejowice,Kraków,1.0,50.09742625,20.00960263225891,502374.0,4.0,66.12,2020.0,7597.912885662431
Prądnik Biały Henryka Pachońskiego,Kraków,5.0,50.0949773,19.920405494289955,418362.0,3.0,46.94,2021.0,8912.697060076694
Prądnik Czerwony,Kraków,2.0,50.0859419,19.96660060819073,510000.0,3.0,52.83,1980.0,9653.605905735378
Dębniki Ruczaj Chmieleniec,Kraków,1.0,50.0204807,19.8980137,529900.0,2.0,54.0,2007.0,9812.962962962964
Prądnik Biały Józefa Chełmońskiego,Kraków,1.0,50.0863097,19.9139884,440000.0,2.0,48.4,2008.0,9090.909090909092
Bieżanów-Prokocim,Kraków,0.0,50.01706235,20.022991856015395,498312.0,4.0,61.52,2021.0,8100.0
Prądnik Czerwony Reduta,Kraków,3.0,50.1609054,19.743089127291668,680000.0,3.0,61.01,2017.0,11145.713817406982
Mistrzejowice ul. Piasta Kołodzieja,Kraków,6.0,50.0986433,20.0132206,756284.0,4.0,87.94,2020.0,8600.0
Nowa Huta Czyżyny Nowohucka 46,Kraków,1.0,50.0558029,19.9993305,305370.0,1.0,26.1,2022.0,11700.0
Podgórze Duchackie Wola Duchacka Henryka Kamieńskiego,Kraków,7.0,50.0288704,19.9568753,369000.0,2.0,38.86,2021.0,9495.625321667525
Podgórze Duchackie Walerego Sławka,Kraków,6.0,50.0242313,19.959569,419000.0,2.0,44.26,2020.0,9466.78716674198
Podgórze Płaszów,Kraków,1.0,50.0345327,19.9754459,523000.0,3.0,65.38,2022.0,7999.388192107679
Bieżanów-Prokocim Republiki Korczakowskiej,Kraków,6.0,50.0163919,20.0008638,619000.0,3.0,62.5,2014.0,9904.0
Podgórze Duchackie Wola Duchacka Adama Bochenka,Kraków,0.0,50.0127186,19.9775244,319000.0,2.0,35.41,2021.0,9008.754589099126
Prądnik Biały Górka Narodowa abp. Zygmunta Szczęsnego Felińskiego,Kraków,4.0,50.1003474,19.9684566,519000.0,2.0,55.67,2014.0,9322.795042213042
Prądnik Biały Stefana Banacha,Kraków,1.0,50.1015333,19.9640995,528381.0,3.0,57.9,2021.0,9125.751295336788
małopolskie,Kraków,9.0,50.0619474,19.9368564,532350.0,3.0,68.25,2018.0,7800.0
Krowodrza Kazimierza Wielkiego,Kraków,1.0,50.073573,19.9193678,630015.0,3.0,48.5,2020.0,12990.0
Nowa Huta Czyżyny ul. Sołtysowska,Kraków,3.0,50.0605887,20.0240353,535200.0,3.0,55.75,2022.0,9600.0
Nowa Huta Czyżyny,Kraków,2.0,50.0816349,20.016490706002102,295000.0,2.0,27.0,2019.0,10925.925925925925
Dębniki Ruczaj dr. Jana Piltza,Kraków,4.0,50.0076191,19.8888826,352644.0,2.0,35.27,2021.0,9998.41224836972
Podgórze Walerego Sławka,Kraków,1.0,50.0242313,19.959569,749000.0,4.0,88.73,2020.0,8441.338893271723
Podgórze ul. dr. Jana Piltza,Kraków,2.0,50.0076191,19.8888826,660000.0,3.0,67.21,2021.0,9819.967266775779
Nowa Huta Czyżyny os. Złotej Jesieni,Kraków,2.0,50.0921707,20.0255051,335000.0,1.0,38.0,1976.0,8815.78947368421
Mistrzejowice ul. Piasta Kołodzieja,Kraków,3.0,50.0986433,20.0132206,409530.0,2.0,48.18,2022.0,8500.0
Nowa Huta Czyżyny Nowohucka 46,Kraków,2.0,50.0558029,19.9993305,468966.0,3.0,49.89,2022.0,9400.0
Grzegórzki ul. Fabryczna,Kraków,4.0,50.058444,19.9702351,1026066.0,3.0,83.42,2021.0,12300.0
Bronowice ul. Bronowicka,Kraków,3.0,50.0778251,19.900680986965757,596646.0,2.0,46.98,2022.0,12700.0
Prądnik Biały Azory ul. Piotra Stachiewicza,Kraków,0.0,50.0852974,19.9164193,315000.0,2.0,37.0,1968.0,8513.513513513513
Łagiewniki-Borek Fałęcki Borek Fałęcki Żywiecka,Kraków,4.0,50.014117,19.9179187,399000.0,3.0,45.5,2020.0,8769.23076923077
Podgórze Pana Tadeusza,Kraków,0.0,50.0495539,19.9719694,466000.0,3.0,48.8,1970.0,9549.180327868853
Dębniki Ruczaj,Kraków,1.0,50.0230156,19.9083637,397992.0,2.0,43.26,2021.0,9200.0
Prądnik Biały Szymona Zimorowicza,Kraków,4.0,50.0950503,19.9284425,465000.0,3.0,49.02,2020.0,9485.9241126071
Bieżanów-Prokocim Górników,Kraków,0.0,50.021319,19.9953253,460000.0,2.0,46.3,2014.0,9935.205183585314
Nowa Huta Osiedle Urocze,Kraków,3.0,50.0779373,20.0341341,350000.0,1.0,36.9,1956.0,9485.09485094851
Grzegórzki Olsza,Kraków,7.0,50.0789773,19.9605879,330000.0,2.0,36.0,1980.0,9166.666666666666
Bieżanów-Prokocim ul. Mariana Domagały,Kraków,4.0,50.0219561,20.0509824,547470.0,4.0,71.1,2021.0,7700.000000000001
Bieżanów-Prokocim Złocień Złocieniowa,Kraków,1.0,50.0181408,20.0508626,611000.0,3.0,64.0,2018.0,9546.875
Nowa Huta Czyżyny Sołtysowska,Kraków,5.0,50.0605887,20.0240353,495000.0,3.0,63.28,2021.0,7822.376738305942
Dębniki ul. Sandomierska,Kraków,3.0,50.0517401,19.9311178,944760.0,3.0,78.73,2015.0,12000.0
Stare Miasto Kazimierz,Kraków,1.0,50.051855,19.9449466,1000000.0,3.0,78.7,1900.0,12706.480304955527
Dębniki Stare Dębniki ul. Praska,Kraków,2.0,50.0462081,19.9106477,479000.0,2.0,51.5,1950.0,9300.970873786408
Nowa Huta Osiedle Spółdzielcze,Kraków,2.0,50.0777259,20.0272257,265000.0,2.0,32.6,1968.0,8128.83435582822
Podgórze Płaszów Lipska,Kraków,1.0,50.0454593,20.0002025,448810.0,3.0,48.52,2021.0,9250.0
Prądnik Czerwony Młyńska-Boczna,Kraków,4.0,50.0831155,19.9737526,350000.0,2.0,37.0,1960.0,9459.45945945946
Nowa Huta Czyżyny,Kraków,2.0,50.0816349,20.016490706002102,388080.0,2.0,39.6,2022.0,9800.0
Podgórze Fredry,Kraków,2.0,50.027406600000006,19.94132055000001,410000.0,2.0,34.6,2020.0,11849.710982658959
Dębniki Ruczaj,Kraków,3.0,50.0230156,19.9083637,850000.0,4.0,102.0,2005.0,8333.333333333334
Prądnik Biały Górka Narodowa Stefana Banacha,Kraków,2.0,50.1015333,19.9640995,462181.28,3.0,59.82,2021.0,7726.1999331327315
Prądnik Czerwony Młyńska Boczna,Kraków,0.0,50.0453141,19.9246883,362100.0,2.0,37.0,1978.0,9786.486486486487
Bieżanów-Prokocim Erazma Jerzmanowskiego,Kraków,1.0,50.0096842,20.0092457,590000.0,4.0,56.42,2015.0,10457.284650833037
Podgórze ul. Stanisława Klimeckiego,Kraków,5.0,50.0492242,19.9703793,569000.0,3.0,54.36,2021.0,10467.255334805004
Dębniki Ruczaj dr. Jana Piltza,Kraków,2.0,50.0076191,19.8888826,569000.0,3.0,50.7,2020.0,11222.879684418145
Nowa Huta Czyżyny ul. Woźniców,Kraków,0.0,50.0469432,19.997153435836697,706800.0,4.0,74.4,2022.0,9500.0
Bieżanów-Prokocim Wielicka 179,Kraków,1.0,50.0102971,20.00857,400411.0,2.0,44.99,2021.0,8900.0
Prądnik Biały Henryka Pachońskiego,Kraków,4.0,50.0949773,19.920405494289955,478000.0,3.0,50.9,2021.0,9390.962671905698
Podgórze Duchackie ul. Walerego Sławka,Kraków,3.0,50.0242313,19.959569,539000.0,3.0,57.1,2021.0,9439.579684763572
Podgórze Duchackie ul. Walerego Sławka,Kraków,0.0,50.0242313,19.959569,449000.0,2.0,47.09,2021.0,9534.933106816734
Mistrzejowice,Kraków,5.0,50.09742625,20.00960263225891,380000.0,2.0,36.0,2020.0,10555.555555555555
Podgórze Płaszów,Kraków,1.0,50.0345327,19.9754459,760000.0,5.0,79.6,2015.0,9547.738693467338
Prądnik Czerwony ul. Promienistych,Kraków,1.0,50.0858369,19.9714303,629942.0,4.0,70.78,2021.0,8900.0
Podgórze Kazimierza Siemienowicza,Kraków,2.0,50.0380294,19.99559564674397,428832.0,2.0,44.67,2023.0,9600.0
Podgórze Zabłocie,Kraków,4.0,50.0478769,19.961368688357496,649000.0,3.0,61.11,2021.0,10620.1930944199
Krowodrza ul. Obopólna,Kraków,3.0,50.0721983,19.9064101,585000.0,2.0,53.95,1960.0,10843.373493975903
Prądnik Czerwony Dobrego Pasterza,Kraków,5.0,50.0878647,19.9683977,649000.0,2.0,55.21,2020.0,11755.116826661837
Mistrzejowice ul. Piasta Kołodzieja,Kraków,2.0,50.0986433,20.0132206,497420.0,4.0,65.45,2022.0,7600.0
Prądnik Biały Stefana Banacha,Kraków,5.0,50.1015333,19.9640995,968688.0,4.0,104.16,2021.0,9300.0
Bieżanów-Prokocim Wielicka 179,Kraków,1.0,50.0102971,20.00857,435744.0,2.0,48.96,2021.0,8900.0
Dębniki Skotniki ul. Aleksandra Zelwerowicza,Kraków,0.0,50.0179578,19.8790929,630000.0,4.0,75.0,2022.0,8400.0
Prądnik Biały,Kraków,0.0,50.1035684,19.9536031063012,442000.0,3.0,48.5,1990.0,9113.40206185567
Grzegórzki Dąbie,Kraków,3.0,50.0587985,19.9758208,495000.0,3.0,50.0,1964.0,9900.0
Wzgórza Krzesławickie ul.Gustawa Morcinka,Kraków,0.0,50.1047809,20.0362743,197028.0,1.0,25.26,2022.0,7799.999999999999
Podgórze Bagrowa,Kraków,3.0,50.0361989,20.000282,1150000.0,4.0,86.0,2018.0,13372.093023255815
Prądnik Czerwony Rakowice Włodkowica,Kraków,0.0,50.0746426,19.9827054,480000.0,2.0,49.1,1962.0,9775.967413441955
Stare Miasto,Kraków,4.0,50.0590398,19.93716829792899,777000.0,3.0,60.74,2008.0,12792.229173526506
Podgórze Duchackie Wola Duchacka,Kraków,4.0,50.0146222,19.953758,445993.87,2.0,43.91,2021.0,10157.0
Dębniki Ruczaj Obozowa,Kraków,1.0,50.0206194,19.9145455,510000.0,3.0,59.8,2010.0,8528.428093645485
Bronowice,Kraków,0.0,50.0833247,19.869783648014888,568000.0,3.0,71.92,2022.0,7897.664071190211
Nowa Huta Czyżyny ul. Woźniców,Kraków,4.0,50.0469432,19.997153435836697,586150.0,3.0,61.7,2022.0,9500.0
Mistrzejowice os. Piastów,Kraków,1.0,50.1012069,20.017364300393496,699000.0,4.0,72.31,2020.0,9666.71276448624
Mistrzejowice ul. Piasta Kołodzieja,Kraków,0.0,50.0986433,20.0132206,398320.0,2.0,49.79,2022.0,8000.0
Krowodrza,Kraków,2.0,50.07087985,19.91656311814478,1050000.0,4.0,81.0,1939.0,12962.962962962964
Grzegórzki Stanisława Lema,Kraków,1.0,50.06772015,19.99154900943178,623000.0,3.0,63.28,2021.0,9845.132743362832
Nowa Huta Czyżyny ul. Woźniców,Kraków,1.0,50.0469432,19.997153435836697,459700.0,2.0,45.97,2022.0,10000.0
Nowa Huta Czyżyny Nowohucka 46,Kraków,2.0,50.0558029,19.9993305,553755.0,3.0,63.65,2022.0,8700.0
Zwierzyniec Piotra Borowego,Kraków,2.0,50.0469432,19.997153435836697,535000.0,1.0,53.0,2000.0,10094.33962264151
Dębniki Ruczaj Chmieleniec,Kraków,2.0,50.0204807,19.8980137,425000.0,2.0,48.4,2006.0,8780.99173553719
Mistrzejowice ul. Piasta Kołodzieja,Kraków,9.0,50.0986433,20.0132206,431910.0,3.0,47.99,2020.0,9000.0
Podgórze Przewóz Przewóz,Kraków,1.0,50.0435196,20.0712999,460000.0,2.0,38.0,2015.0,12105.263157894737
małopolskie,Kraków,4.0,50.0619474,19.9368564,529000.0,3.0,62.45,2021.0,8470.776621297036
Grzegórzki Stanisława Lema,Kraków,3.0,50.06772015,19.99154900943178,844658.0,4.0,78.94,2021.0,10700.0
Mistrzejowice os. Mistrzejowice,Kraków,8.0,50.09497745,19.996209027640845,576000.0,4.0,71.59,1991.0,8045.816454812124
Dębniki Kliny-Zacisze,Kraków,2.0,50.00969645000001,19.90590180362617,630000.0,3.0,64.0,2020.0,9843.75
Prądnik Biały Stefana Banacha,Kraków,4.0,50.1015333,19.9640995,968502.0,5.0,104.14,2020.0,9300.0
Prądnik Biały Zielińska,Kraków,0.0,50.0960701,19.9318655,442000.0,3.0,48.0,1980.0,9208.333333333334
Nowa Huta Os. Słoneczne,Kraków,1.0,50.0771546,20.0393941,255000.0,1.0,20.37,1970.0,12518.40942562592
Podgórze Zabłocie,Kraków,4.0,50.0478769,19.961368688357496,429000.0,2.0,34.73,2021.0,12352.433054995681
Mistrzejowice Piasta Kołodzieja,Kraków,3.0,50.0986433,20.0132206,635000.0,3.0,63.51,2020.0,9998.42544481184
Podgórze Duchackie Wola Duchacka,Kraków,5.0,50.0146222,19.953758,430636.8,2.0,40.78,2021.0,10560.0
Mistrzejowice ul. Piasta Kołodzieja,Kraków,4.0,50.0986433,20.0132206,478629.0,3.0,59.09,2022.0,8099.999999999999
Krowodrza Świętokrzyska,Kraków,4.0,50.07562685,19.9287277539394,889497.0,3.0,66.42,2020.0,13392.0054200542
Mistrzejowice Piasta Kołodzieja,Kraków,0.0,50.0986433,20.0132206,512694.0,4.0,65.73,2020.0,7799.999999999999
Prądnik Biały,Kraków,10.0,50.1035684,19.9536031063012,390000.0,3.0,45.5,1983.0,8571.42857142857
Bronowice Bronowicka,Kraków,5.0,50.0778251,19.900680986965757,480000.0,3.0,45.0,1974.0,10666.666666666666
Zwierzyniec Bielany ul. Księcia Józefa,Kraków,0.0,50.0462733,19.8721668,458000.0,2.0,51.48,2021.0,8896.658896658897
Prądnik Biały Górka Narodowa Stefana Banacha,Kraków,3.0,50.1015333,19.9640995,399000.0,2.0,40.71,2021.0,9801.031687546058
Grzegórzki Kazimierza Kordylewskiego,Kraków,2.0,50.0603359,19.9623163,629000.0,2.0,47.13,2009.0,13346.064078081901
Grzegórzki al. Pokoju,Kraków,2.0,50.0589305,19.9762323,660000.0,3.0,70.0,1965.0,9428.57142857143
Bronowice Stańczyka,Kraków,8.0,50.0788285,19.8942504,475000.0,2.0,40.88,2021.0,11619.373776908024
Nowa Huta Czyżyny Kamionka,Kraków,0.0,50.0647613,20.0099164,375700.0,2.0,44.0,2022.0,8538.636363636364
Zwierzyniec Królowej Jadwigi,Kraków,2.0,50.0550023,19.908853,915000.0,4.0,92.0,2019.0,9945.652173913044
Stare Miasto Bonerowska,Kraków,4.0,50.059063,19.9457319,490000.0,2.0,41.5,1910.0,11807.22891566265
Krowodrza Łobzów Wrocławska,Kraków,4.0,50.0782971,19.9236467,335000.0,1.0,29.45,1930.0,11375.212224108658
Krowodrza Adama Vetulaniego,Kraków,0.0,50.0947269,19.9247728,280000.0,1.0,25.51,2021.0,10976.087808702468
Nowa Huta Czyżyny,Kraków,1.0,50.0816349,20.016490706002102,358000.0,1.0,34.0,2015.0,10529.411764705883
Grzegórzki Aleja Pokoju,Kraków,3.0,50.0589305,19.9762323,495000.0,3.0,50.0,1968.0,9900.0
Krowodrza Krowoderskich Zuchów,Kraków,3.0,50.08492885,19.931430599115654,599000.0,4.0,64.0,1970.0,9359.375
Podgórze Stanisława Mitery,Kraków,3.0,50.0387673,19.9403193,435000.0,2.0,52.67,1952.0,8258.97095120562
Łagiewniki-Borek Fałęcki ul. Żywiecka,Kraków,3.0,50.014117,19.9179187,647000.0,3.0,67.0,2020.0,9656.716417910447
Bieńczyce Osiedle Jagiellońskie,Kraków,0.0,50.06165525,19.93365859224709,360000.0,2.0,43.0,1970.0,8372.093023255815
Łagiewniki-Borek Fałęcki,Kraków,1.0,50.0199633,19.9294446,690000.0,3.0,63.0,2020.0,10952.380952380952
Mistrzejowice,Kraków,1.0,50.09742625,20.00960263225891,354351.0,2.0,40.73,2022.0,8700.0
Wzgórza Krzesławickie,Kraków,0.0,50.0984135,20.09201112156821,341500.0,2.0,34.2,2019.0,9985.380116959064
Grzegórzki ul. Grzegórzecka,Kraków,3.0,50.0587885,19.9500605,464702.0,1.0,34.94,2020.0,13300.0
Mistrzejowice Piasta Kołodzieja,Kraków,1.0,50.0986433,20.0132206,457725.0,3.0,61.03,2022.0,7500.0
Bieżanów-Prokocim Bieżanów,Kraków,1.0,50.0128958,20.0258584,538000.0,3.0,66.0,2005.0,8151.515151515152
Podgórze Płaszów,Kraków,4.0,50.0345327,19.9754459,501000.0,3.0,56.74,2022.0,8829.749735636235
Podgórze ul. Stanisława Klimeckiego,Kraków,2.0,50.0492242,19.9703793,469000.0,2.0,38.97,2021.0,12034.898639979472
Bieżanów-Prokocim ul. Mała Góra,Kraków,2.0,50.0068653,20.0196406,438252.0,3.0,52.34,2021.0,8373.17539166985
Podgórze Duchackie Wola Duchacka,Kraków,2.0,50.0146222,19.953758,540594.0,3.0,66.74,2021.0,8100.000000000001
Krowodrza Krowoderskich Zuchów,Kraków,4.0,50.08492885,19.931430599115654,540000.0,5.0,67.0,1980.0,8059.701492537313
Podgórze Duchackie Wola Duchacka Czarnogórska,Kraków,3.0,50.0197183,19.9709187,449000.0,3.0,53.0,1980.0,8471.698113207547
Nowa Huta Czyżyny Nowohucka 46,Kraków,3.0,50.0558029,19.9993305,341200.0,2.0,34.12,2022.0,10000.0
Stare Miasto Kleparz,Kraków,1.0,50.0700397,19.9419902,1053910.0,3.0,87.1,1930.0,12100.0
Łagiewniki-Borek Fałęcki Borek Fałęcki Żywiecka,Kraków,0.0,50.014117,19.9179187,899000.0,3.0,82.0,2019.0,10963.414634146342
Mistrzejowice ul. Piasta Kołodzieja,Kraków,1.0,50.0986433,20.0132206,450528.0,3.0,57.76,2022.0,7800.0
Grzegórzki ul. Fabryczna,Kraków,4.0,50.058444,19.9702351,933939.0,3.0,75.93,2021.0,12299.999999999998
Nowa Huta Osiedle Słoneczne,Kraków,2.0,50.0771546,20.0393941,249000.0,1.0,26.1,1954.0,9540.229885057472
Mistrzejowice,Kraków,2.0,50.09742625,20.00960263225891,399999.0,3.0,47.6,1974.0,8403.340336134454
Mistrzejowice ul. Piasta Kołodzieja,Kraków,2.0,50.0986433,20.0132206,478629.0,3.0,59.09,2022.0,8099.999999999999
Nowa Huta os. Centrum C,Kraków,5.0,50.0741729,20.036048,415000.0,2.0,39.0,1960.0,10641.02564102564
Dębniki Ruczaj Chmieleniec,Kraków,3.0,50.0204807,19.8980137,645000.0,3.0,68.0,2007.0,9485.29411764706
Podgórze Koszykarska,Kraków,1.0,50.0498929,19.9906026,475000.0,3.0,57.88,2021.0,8206.634416033172
Bronowice ul. Józefa Chełmońskiego,Kraków,3.0,50.0863097,19.9139884,520000.0,2.0,47.5,2013.0,10947.368421052632
Prądnik Czerwony ul. Dobrego Pasterza,Kraków,4.0,50.0878647,19.9683977,350000.0,1.0,26.62,2012.0,13148.00901577761
Bieńczyce,Kraków,1.0,50.08605125,20.02922626218556,285000.0,2.0,36.0,1964.0,7916.666666666667
Grzegórzki,Kraków,0.0,50.06497215,19.968825516425383,265000.0,1.0,20.0,1970.0,13250.0
Podgórze Solna,Kraków,1.0,50.0476566,19.9537741,880000.0,3.0,68.48,2016.0,12850.467289719625
Dębniki Dębnicki,Kraków,2.0,50.0520343,19.9269287,1290000.0,3.0,96.0,1905.0,13437.5
Nowa Huta Czyżyny os. Dywizjonu 303,Kraków,3.0,50.0818649,20.0122791,655000.0,3.0,70.0,2019.0,9357.142857142857
Dębniki Ruczaj dr. Jana Piltza,Kraków,0.0,50.0076191,19.8888826,428000.0,2.0,52.64,2010.0,8130.699088145897
Nowa Huta Czyżyny Nowohucka 46,Kraków,3.0,50.0558029,19.9993305,436230.0,2.0,47.16,2022.0,9250.0
Nowa Huta Czyżyny Nowohucka 46,Kraków,4.0,50.0558029,19.9993305,372632.0,2.0,35.83,2022.0,10400.0
Podgórze Duchackie Wola Duchacka Kamieńskiego,Kraków,4.0,50.0288704,19.9568753,529000.0,3.0,60.0,2021.0,8816.666666666666
Podgórze ul. Stanisława Klimeckiego,Kraków,3.0,50.0492242,19.9703793,469000.0,2.0,39.07,2021.0,12004.095213718965
Dębniki Kliny-Zacisze,Kraków,2.0,50.00969645000001,19.90590180362617,440000.0,2.0,46.54,2018.0,9454.23291792007
Podgórze,Kraków,4.0,50.0430999,19.9529614,385000.0,2.0,44.0,1970.0,8750.0
Prądnik Biały Stefana Banacha,Kraków,3.0,50.1015333,19.9640995,489491.0,3.0,60.65,2022.0,8070.750206100577
Grzegórzki ul. Fabryczna,Kraków,4.0,50.058444,19.9702351,715780.0,3.0,55.06,2021.0,13000.0
Bieńczyce,Kraków,10.0,50.08605125,20.02922626218556,330000.0,2.0,37.95,1968.0,8695.652173913042
Prądnik Biały ul. Stefana Banacha,Kraków,0.0,50.1021791,19.9559231,475176.0,4.0,60.92,2022.0,7800.0
Bieżanów-Prokocim Konrada Wallenroda,Kraków,3.0,50.0176748,20.0011197,406000.0,2.0,40.0,2014.0,10150.0
Podgórze Zabłocie Stanisława Klimeckiego,Kraków,2.0,50.0492242,19.9703793,749000.0,3.0,74.05,2021.0,10114.78730587441
Mistrzejowice Piasta Kołodzieja,Kraków,5.0,50.0986433,20.0132206,336518.0,2.0,36.98,2021.0,9100.0
Łagiewniki-Borek Fałęcki Borek Fałęcki,Kraków,0.0,50.0232502,19.9346479,899470.0,3.0,81.8,2018.0,10995.96577017115
Mistrzejowice ul. Piasta Kołodzieja,Kraków,5.0,50.0986433,20.0132206,354351.0,2.0,40.73,2022.0,8700.0
Prądnik Biały Henryka Pachońskiego,Kraków,2.0,50.0949773,19.920405494289955,384842.0,2.0,39.88,2022.0,9650.0
Prądnik Biały Górka Narodowa,Kraków,1.0,50.0974858,19.9592694,339000.0,2.0,36.0,2020.0,9416.666666666666
Bronowice Bronowice Małe Wizjonerów,Kraków,1.0,50.0849209,19.8909484,760000.0,4.0,70.0,2018.0,10857.142857142857
Prądnik Biały Białoprądnicka,Kraków,0.0,50.0469432,19.997153435836697,443000.0,3.0,48.5,2008.0,9134.0206185567
Mistrzejowice,Kraków,3.0,50.09742625,20.00960263225891,572520.0,4.0,73.4,2020.0,7799.999999999999
Prądnik Biały Stefana Banacha,Kraków,2.0,50.1015333,19.9640995,681059.0,4.0,79.64,2021.0,8551.720241084882
Stare Miasto al. 29 Listopada,Kraków,2.0,49.9730627,19.8323374,669000.0,2.0,58.94,2018.0,11350.52595860197
Prądnik Biały Górka Narodowa ks. Józefa Meiera,Kraków,2.0,50.0969632,19.9652068,495000.0,2.0,60.0,2008.0,8250.0
Prądnik Czerwony Rakowice bp. Jana Prandoty,Kraków,5.0,50.0791121,19.949934073837213,379999.0,2.0,29.3,2020.0,12969.249146757678
Prądnik Biały Azory Mariana Smoluchowskiego,Kraków,3.0,50.0721122,19.909405,590000.0,2.0,52.0,1960.0,11346.153846153846
Stare Miasto Kleparz Długa,Kraków,4.0,50.2658017,19.785956,799000.0,3.0,69.0,1930.0,11579.710144927536
Bieżanów-Prokocim,Kraków,2.0,50.01706235,20.022991856015395,375000.0,2.0,40.85,2017.0,9179.926560587515
Nowa Huta,Kraków,1.0,50.080618650000005,20.12933219800524,370000.0,2.0,45.0,1956.0,8222.222222222223
Dębniki,Kraków,6.0,50.0518611,19.9270367,579000.0,2.0,46.35,2021.0,12491.909385113267
Dębniki ul. Sandomierska,Kraków,3.0,50.0517401,19.9311178,795120.0,3.0,66.26,2015.0,11999.999999999998
Grzegórzki,Kraków,1.0,50.06497215,19.968825516425383,649990.0,3.0,50.0,2015.0,12999.8
Prądnik Biały Henryka Pachońskiego,Kraków,1.0,50.0949773,19.920405494289955,478350.0,3.0,53.15,2022.0,9000.0
Prądnik Czerwony Ugorek,Kraków,7.0,50.0770694,19.9803386,245000.0,1.0,19.86,1965.0,12336.354481369588
Prądnik Biały Azory,Kraków,8.0,50.089965,19.90583066597115,330000.0,2.0,37.0,1970.0,8918.918918918918
Prądnik Biały Szymona Zimorowicza,Kraków,4.0,50.0950503,19.9284425,475099.0,3.0,53.04,2020.0,8957.371794871795
Mistrzejowice,Kraków,0.0,50.09742625,20.00960263225891,434970.0,2.0,48.33,2020.0,9000.0
Prądnik Biały al. 29 Listopada,Kraków,1.0,49.9730627,19.8323374,440775.0,3.0,58.77,2020.0,7500.0
Nowa Huta Fatimska,Kraków,4.0,50.0848747,20.0371374,400000.0,3.0,53.0,1980.0,7547.169811320755
Podgórze Bonarka Walerego Sławka,Kraków,0.0,50.0205244,19.9601785,559000.0,3.0,62.66,2021.0,8921.161825726142
Prądnik Biały Mikołaja Reja,Kraków,0.0,50.086051,19.9433075,550000.0,3.0,67.63,2005.0,8132.485583321012
Prądnik Czerwony Wileńska,Kraków,8.0,50.0811975,19.95581,540000.0,3.0,60.0,1984.0,9000.0
Podgórze Duchackie ul. Sebastiana Klonowica,Kraków,3.0,50.0197558,19.9528554,543120.0,2.0,67.89,2020.0,8000.0
Stare Miasto ul. gen. Romana Sołtyka,Kraków,3.0,50.0469432,19.997153435836697,1500000.0,4.0,134.0,1938.0,11194.029850746268
Mistrzejowice ul. Piasta Kołodzieja,Kraków,1.0,50.0986433,20.0132206,410184.0,3.0,50.64,2022.0,8100.0
Dębniki,Kraków,0.0,50.0518611,19.9270367,629000.0,2.0,48.13,2021.0,13068.772075628505
Nowa Huta Czyżyny,Kraków,2.0,50.0816349,20.016490706002102,441243.0,2.0,44.57,2018.0,9900.0
Prądnik Czerwony Jakuba Majora,Kraków,10.0,50.0884029,19.96545315306553,1350000.0,4.0,118.5,2008.0,11392.405063291139
Łagiewniki-Borek Fałęcki Borek Fałęcki,Kraków,0.0,50.0232502,19.9346479,889470.0,3.0,81.8,2019.0,10873.716381418093
Podgórze Duchackie ul. Walerego Sławka,Kraków,7.0,50.0242313,19.959569,399000.0,2.0,38.86,2021.0,10267.627380339682
Śródmieście Frycza Modrzewskiego,Kraków,6.0,50.05088545,19.964248157558234,569000.0,2.0,48.4,2001.0,11756.198347107438
Prądnik Biały,Kraków,7.0,50.1035684,19.9536031063012,515000.0,3.0,55.3,2009.0,9312.839059674503
Podgórze,Kraków,1.0,50.0430999,19.9529614,738172.0,3.0,74.45,2021.0,9915.003357958361
Mistrzejowice ul. Piasta Kołodzieja,Kraków,4.0,50.0986433,20.0132206,729902.0,4.0,87.94,2020.0,8300.0
Grzegórzki ul. Fabryczna,Kraków,6.0,50.058444,19.9702351,1068993.0,3.0,86.91,2021.0,12300.0
Dębniki Kliny-Zacisze ul. Anny Szwed-Śniadowskiej 44,Kraków,2.0,50.0469432,19.997153435836697,440000.0,2.0,46.54,2018.0,9454.23291792007
Śródmieście Mogilska,Kraków,3.0,50.0666138,19.9645711,569000.0,2.0,48.69,1966.0,11686.17785993017
Mistrzejowice Piasta Kołodzieja,Kraków,2.0,50.0986433,20.0132206,389016.0,2.0,36.02,2020.0,10799.999999999998
Mistrzejowice ul. Piasta Kołodzieja,Kraków,0.0,50.0986433,20.0132206,354351.0,2.0,40.73,2022.0,8700.0
Krowodrza al. Kijowska,Kraków,2.0,50.0684308,19.9137868,669000.0,3.0,65.0,1980.0,10292.307692307691
Nowa Huta Czyżyny ul. Woźniców,Kraków,4.0,50.0469432,19.997153435836697,414000.0,1.0,34.5,2022.0,12000.0
Mistrzejowice,Kraków,5.0,50.09742625,20.00960263225891,380000.0,2.0,36.0,2020.0,10555.555555555555
Dębniki Barska,Kraków,0.0,50.0471731,19.9322718,349000.0,1.0,31.0,1900.0,11258.064516129032
Krowodrza ul. Nawojki,Kraków,2.0,50.0686102,19.912086,740000.0,3.0,62.73,1978.0,11796.588554120835
Prądnik Czerwony ul. Promienistych,Kraków,0.0,50.0858369,19.9714303,452270.0,2.0,46.15,2021.0,9800.0
małopolskie,Kraków,2.0,50.0619474,19.9368564,399000.0,2.0,44.21,2021.0,9025.107441755259
Podgórze Duchackie Wola Duchacka,Kraków,0.0,50.0146222,19.953758,489600.0,3.0,61.2,2020.0,8000.0
Podgórze Zabłocie płk. Ryszarda Kuklińskiego,Kraków,5.0,50.04450785,19.9731901,527138.0,2.0,49.73,2020.0,10600.0
Nowa Huta Czyżyny os. Dywizjonu 303,Kraków,10.0,50.0818649,20.0122791,240000.0,1.0,24.0,1980.0,10000.0
Stare Miasto,Kraków,1.0,50.0590398,19.93716829792899,1150000.0,5.0,95.5,1880.0,12041.884816753927
Nowa Huta Czyżyny,Kraków,3.0,50.0816349,20.016490706002102,398000.0,2.0,52.0,1962.0,7653.846153846154
Podgórze ul. płk. Ryszarda Kuklińskiego 7,Kraków,3.0,50.0469432,19.997153435836697,520354.0,2.0,49.09,2020.0,10600.0
Podgórze ul. Wielicka,Kraków,1.0,50.0336609,19.9712973,349354.0,1.0,38.4,2021.0,9097.760416666668
Krowodrza,Kraków,3.0,50.07087985,19.91656311814478,360000.0,2.0,37.1,1970.0,9703.504043126684
Podgórze Płaszów Myśliwska,Kraków,2.0,50.0454593,20.0002025,423000.0,3.0,56.05,2023.0,7546.833184656557
Dębniki Ruczaj,Kraków,1.0,50.0230156,19.9083637,458068.0,2.0,49.79,2021.0,9200.0
Podgórze Duchackie Wola Duchacka,Kraków,4.0,50.0146222,19.953758,509000.0,3.0,55.5,2021.0,9171.17117117117
Łagiewniki-Borek Fałęcki Borek Fałęcki Montwiłła-Mireckiego,Kraków,2.0,50.0189691,19.9251115,295000.0,1.0,27.0,1966.0,10925.925925925925
Dębniki Kliny-Zacisze Komuny Paryskiej,Kraków,0.0,49.9989124,19.8947491,684972.0,3.0,69.29,2022.0,9885.582335113291
Podgórze Duchackie Piaski Wielkie Łużycka,Kraków,3.0,50.0130357,19.9613468,420000.0,3.0,56.1,1978.0,7486.63101604278
Dębniki Ruczaj Przemiarki,Kraków,3.0,50.0223613,19.9021848,530000.0,3.0,54.8,2010.0,9671.532846715329
Dębniki Wacława Lipińskiego,Kraków,4.0,50.0303166,19.9252806,609000.0,3.0,58.0,2007.0,10500.0
Prądnik Biały Górka Narodowa,Kraków,1.0,50.0974858,19.9592694,449980.26,3.0,59.82,2021.0,7522.237713139419
Łagiewniki-Borek Fałęcki Borek Fałęcki Tokarska,Kraków,0.0,50.021563,19.9281184,249000.0,1.0,26.0,1960.0,9576.923076923076
Podgórze,Kraków,3.0,50.0430999,19.9529614,660000.0,3.0,75.1,2002.0,8788.282290279627
Grzegórzki ul. płk. Francesco Nullo,Kraków,2.0,50.0469432,19.997153435836697,836252.0,3.0,76.37,2022.0,10950.006547073457
Podgórze Stare Podgórze,Kraków,3.0,50.0444203,19.9493098,499000.0,1.0,37.2,1900.0,13413.978494623654
Stare Miasto Mikołaja Zyblikiewicza,Kraków,1.0,50.0605245,19.9441727,680000.0,3.0,68.06,1905.0,9991.184249191889
Bronowice Juliusza Lea,Kraków,1.0,50.0833247,19.869783648014888,1272770.37,5.0,107.0,2021.0,11895.050186915889
Nowa Huta Czyżyny Nowohucka 46,Kraków,4.0,50.0558029,19.9993305,604752.0,4.0,70.32,2022.0,8600.0
Bronowice ul. Bronowicka 5,Kraków,1.0,50.0778251,19.900680986965757,459996.0,2.0,37.81,2021.0,12165.987833906373
Podgórze Duchackie Walerego Sławka,Kraków,5.0,50.0242313,19.959569,419000.0,2.0,44.25,2021.0,9468.926553672316
Prądnik Biały,Kraków,4.0,50.1035684,19.9536031063012,481080.0,3.0,50.64,2021.0,9500.0
Bieżanów-Prokocim Kozłówek Na Kozłówce,Kraków,0.0,50.0205914,19.9789485,459000.0,4.0,53.1,1977.0,8644.067796610168
Dębniki Podhalańska,Kraków,0.0,50.0217426,19.9173734,820000.0,4.0,81.0,2010.0,10123.456790123457
Podgórze Seweryna Goszczyńskiego,Kraków,3.0,50.0372338,19.9917518,466362.0,2.0,48.83,2022.0,9550.727012082736
Swoszowice ul. Borkowska,Kraków,1.0,50.0033424,19.9040614,360000.0,1.0,33.27,2005.0,10820.559062218214
Bronowice Bronowice Małe Na Błonie,Kraków,4.0,50.0796284,19.8801923,437000.0,3.0,53.0,1982.0,8245.283018867925
Stare Miasto Długa,Kraków,0.0,50.2658017,19.785956,999999.0,3.0,100.0,1918.0,9999.99
Grzegórzki,Kraków,3.0,50.06497215,19.968825516425383,899000.0,3.0,75.45,2008.0,11915.175612988734
Podgórze Płaszów,Kraków,1.0,50.0345327,19.9754459,495000.0,2.0,51.5,2010.0,9611.650485436894
Dębniki Ruczaj prof. Władysława Konopczyńskiego,Kraków,3.0,50.0153264,19.8951891,575820.0,3.0,63.98,2021.0,9000.0
Stare Miasto,Kraków,3.0,50.0590398,19.93716829792899,1350000.0,4.0,140.0,1900.0,9642.857142857143
Podgórze,Kraków,6.0,50.0430999,19.9529614,653076.0,3.0,74.98,2021.0,8710.002667377967
Podgórze ul. Koszykarska,Kraków,3.0,50.0498929,19.9906026,547319.0,2.0,54.19,2021.0,10100.0
Łagiewniki-Borek Fałęcki Borek Fałęcki Tokarska,Kraków,0.0,50.021563,19.9281184,249000.0,1.0,29.0,1950.0,8586.206896551725
Krowodrza,Kraków,4.0,50.07087985,19.91656311814478,360000.0,2.0,34.0,2016.0,10588.235294117647
Dębniki Kobierzyńska,Kraków,0.0,50.0264036,19.9118498,429000.0,2.0,39.04,2021.0,10988.729508196722
Bieżanów-Prokocim Górników,Kraków,1.0,50.021319,19.9953253,659000.0,4.0,76.8,2014.0,8580.729166666668
Stare Miasto Kazimierz Elizy Orzeszkowej,Kraków,4.0,50.0504781,19.93801875590692,1230000.0,5.0,158.0,1910.0,7784.810126582279
Dębniki Obozowa,Kraków,3.0,50.0206194,19.9145455,366000.0,2.0,40.5,2020.0,9037.037037037036
Dębniki Rydlówka,Kraków,1.0,50.08780725,19.878046068078184,449000.0,2.0,43.9,2021.0,10227.790432801823
Podgórze ul. Stanisława Klimeckiego,Kraków,3.0,50.0492242,19.9703793,749000.0,3.0,75.76,2021.0,9886.48363252376
Mistrzejowice,Kraków,0.0,50.09742625,20.00960263225891,450540.0,2.0,50.06,2020.0,9000.0
Podgórze,Kraków,6.0,50.0430999,19.9529614,449000.0,3.0,48.0,1970.0,9354.166666666666
Krowodrza Radzikowskiego 56,Kraków,0.0,50.08355245,19.906821708708843,207480.0,1.0,21.84,2020.0,9500.0
Nowa Huta,Kraków,7.0,50.080618650000005,20.12933219800524,585000.0,3.0,66.0,2009.0,8863.636363636364
Nowa Huta Czyżyny ul. Sołtysowska,Kraków,3.0,50.0605887,20.0240353,355167.0,2.0,38.19,2021.0,9300.0
Grzegórzki ul. płk. Francesco Nullo,Kraków,4.0,50.0469432,19.997153435836697,790650.0,3.0,70.28,2022.0,11250.0
Dębniki Skotniki ul. Aleksandra Zelwerowicza,Kraków,1.0,50.0179578,19.8790929,695000.0,5.0,90.6,2022.0,7671.081677704195
Bronowice Eljasza Walerego Radzikowskiego,Kraków,3.0,50.0894188,19.8836634,515000.0,2.0,54.38,2001.0,9470.393527031996
małopolskie,Kraków,3.0,50.0619474,19.9368564,409000.0,2.0,44.21,2021.0,9251.300610721555
Podgórze ul. Stanisława Klimeckiego,Kraków,2.0,50.0492242,19.9703793,539000.0,2.0,50.8,2021.0,10610.236220472441
Mistrzejowice,Kraków,3.0,50.09742625,20.00960263225891,435520.0,2.0,48.18,2020.0,9039.435450394354
Bronowice,Kraków,2.0,50.0833247,19.869783648014888,469000.0,2.0,46.21,2017.0,10149.318329365939
Krowodrza Królewska,Kraków,1.0,50.073512,19.9149277,550000.0,2.0,47.0,1980.0,11702.127659574468
Śródmieście al. 29 Listopada,Kraków,2.0,49.9730627,19.8323374,404000.0,2.0,43.0,1930.0,9395.348837209302
Nowa Huta Czyżyny,Kraków,1.0,50.0816349,20.016490706002102,439000.0,2.0,56.46,2021.0,7775.41622387531
Zwierzyniec Wola Justowska,Kraków,2.0,50.0650619,19.877649,635000.0,3.0,63.59,2000.0,9985.846831262777
Podgórze,Kraków,1.0,50.0430999,19.9529614,700000.0,2.0,70.6,1936.0,9915.01416430595
Nowa Huta Czyżyny ul. Galicyjska,Kraków,4.0,50.0635614,20.0069208,349000.0,1.0,26.0,2020.0,13423.076923076924
Nowa Huta,Kraków,3.0,50.080618650000005,20.12933219800524,410000.0,2.0,48.0,1950.0,8541.666666666666
Nowa Huta Czyżyny,Kraków,1.0,50.0816349,20.016490706002102,358000.0,1.0,34.0,2015.0,10529.411764705883
Krowodrza Bronowicka,Kraków,1.0,50.081021,19.8917439,637215.0,2.0,55.41,2022.0,11500.0
Podgórze Stare Podgórze Wielicka,Kraków,4.0,50.0336609,19.9712973,480000.0,2.0,53.5,2014.0,8971.96261682243
Prądnik Biały Prądnicka,Kraków,10.0,50.0882793,19.9389231,330000.0,2.0,36.33,1982.0,9083.402146985962
Nowa Huta Czyżyny ul. Woźniców,Kraków,3.0,50.0469432,19.997153435836697,568290.0,3.0,59.82,2022.0,9500.0
Podgórze ks. Ignacego Stoszki,Kraków,1.0,50.0418446,19.9854776,599000.0,3.0,64.0,2007.0,9359.375
Śródmieście Aleja 29 Listopada,Kraków,1.0,51.728259,18.5076219,645792.0,3.0,67.27,2020.0,9600.0
Nowa Huta Kazimierzowskie,Kraków,8.0,50.0855752,20.022019422267554,434000.0,3.0,44.0,1980.0,9863.636363636364
Podgórze Duchackie Wola Duchacka ul. Czarnogórska,Kraków,3.0,50.0197183,19.9709187,485000.0,3.0,53.0,1970.0,9150.943396226416
Mistrzejowice ul. Piasta Kołodzieja,Kraków,4.0,50.0986433,20.0132206,361050.0,2.0,41.5,2022.0,8700.0
Dębniki Skotniki ul. Aleksandra Zelwerowicza,Kraków,1.0,50.0179578,19.8790929,710000.0,5.0,90.6,2022.0,7836.64459161148
Nowa Huta,Kraków,2.0,50.080618650000005,20.12933219800524,265000.0,2.0,32.0,1960.0,8281.25
Prądnik Biały,Kraków,5.0,50.1035684,19.9536031063012,460103.0,2.0,44.6,2020.0,10316.210762331839
Krowodrza Łobzów Nawojki,Kraków,2.0,50.0686102,19.912086,740000.0,3.0,63.0,1976.0,11746.031746031746
Grzegórzki,Kraków,2.0,50.06497215,19.968825516425383,658250.0,2.0,52.66,2022.0,12500.0
Podgórze Lwowska,Kraków,0.0,50.0448486,19.950364,850000.0,2.0,71.0,1950.0,11971.830985915492
Grzegórzki Olsza,Kraków,4.0,50.0789773,19.9605879,455000.0,2.0,51.7,1987.0,8800.773694390715
Prądnik Biały Górka Narodowa Gaik,Kraków,1.0,49.9897707,19.9134505,1007185.0,5.0,126.69,2021.0,7949.996053358592
Krowodrza Bronowicka,Kraków,1.0,50.081021,19.8917439,608760.0,2.0,50.73,2022.0,12000.0
Krowodrza gen. Tadeusza Kościuszki,Kraków,2.0,50.0469432,19.997153435836697,1550000.0,3.0,158.0,1930.0,9810.12658227848
Podgórze Płaszów Lipska,Kraków,0.0,50.0454593,20.0002025,476520.0,3.0,50.16,2021.0,9500.0
Dębniki Rzemieślnicza,Kraków,1.0,50.0469432,19.997153435836697,589000.0,3.0,57.36,2021.0,10268.479776847978
Krowodrza ul. Juliusza Lea 25,Kraków,2.0,50.0703596,19.9188768,1409720.0,5.0,108.44,2020.0,13000.0
Nowa Huta Czyżyny ul. Sołtysowska,Kraków,2.0,50.0605887,20.0240353,352692.0,2.0,34.92,2022.0,10100.0
Nowa Huta Czyżyny ul. Woźniców,Kraków,1.0,50.0469432,19.997153435836697,414720.0,1.0,34.56,2022.0,12000.0
Nowa Huta Czyżyny Sołtysowska,Kraków,0.0,50.0605887,20.0240353,299000.0,1.0,32.67,2021.0,9152.127333945515
Grzegórzki ul. Grzegórzecka,Kraków,2.0,50.0587885,19.9500605,368011.0,1.0,27.67,2020.0,13300.0
Podgórze ul. Stanisława Klimeckiego,Kraków,3.0,50.0492242,19.9703793,469000.0,2.0,39.18,2021.0,11970.393057682491
Bieńczyce os. Kazimierzowskie,Kraków,3.0,50.0861204,20.0244875,298000.0,2.0,38.0,1972.0,7842.105263157895
Stare Miasto al. Zygmunta Krasińskiego,Kraków,1.0,50.0625427,19.918772,849000.0,3.0,101.0,1930.0,8405.940594059406
Dębniki Ruczaj,Kraków,0.0,50.0230156,19.9083637,680000.0,3.0,67.0,2009.0,10149.253731343284
Podgórze Duchackie Wola Duchacka,Kraków,4.0,50.0146222,19.953758,460000.0,2.0,49.0,2004.0,9387.755102040815
Podgórze,Kraków,3.0,50.0430999,19.9529614,269000.0,1.0,35.44,2020.0,7590.293453724606
Bieżanów-Prokocim Bieżanów,Kraków,2.0,50.0128958,20.0258584,349000.0,2.0,36.0,1982.0,9694.444444444445
Bieżanów-Prokocim Złocień,Kraków,1.0,50.0225216,20.0481276,276200.0,2.0,35.88,2021.0,7697.88182831661
Bieżanów-Prokocim,Kraków,1.0,50.01706235,20.022991856015395,532611.0,3.0,64.17,2021.0,8300.0
Podgórze Duchackie Wola Duchacka,Kraków,1.0,50.0146222,19.953758,419000.0,2.0,45.32,2021.0,9245.366284201236
Bieńczyce,Kraków,2.0,50.08605125,20.02922626218556,340000.0,2.0,38.0,1970.0,8947.368421052632
Podgórze Płaszów płk. Ryszarda Kuklińskiego,Kraków,2.0,50.04450785,19.9731901,372857.0,2.0,34.46,2021.0,10819.994196169471
Bieżanów-Prokocim Wielicka 179,Kraków,3.0,50.0102971,20.00857,464555.0,3.0,51.05,2021.0,9100.0
Podgórze Kazimierza Siemienowicza,Kraków,3.0,50.0380294,19.99559564674397,660000.0,3.0,75.1,2002.0,8788.282290279627
Mistrzejowice,Kraków,2.0,50.09742625,20.00960263225891,399977.0,3.0,50.63,2022.0,7900.0
Mistrzejowice,Kraków,4.0,50.09742625,20.00960263225891,695457.0,4.0,83.79,2020.0,8300.0
Podgórze Duchackie Malwowa,Kraków,4.0,50.0165004,19.9482471,460000.0,2.0,49.2,2004.0,9349.593495934958
Grzegórzki Dąbie,Kraków,0.0,50.0587985,19.9758208,380000.0,2.0,39.15,1960.0,9706.25798212005
Dębniki Rzemieślnicza,Kraków,1.0,50.0469432,19.997153435836697,529000.0,3.0,53.84,2021.0,9825.408618127785
Podgórze Płaszów Koszykarska,Kraków,3.0,50.0498929,19.9906026,400000.0,2.0,32.0,2015.0,12500.0
Stare Miasto Kazimierz,Kraków,0.0,50.051855,19.9449466,380000.0,3.0,43.0,1930.0,8837.209302325582
Prądnik Biały Azory Radzikowskiego,Kraków,1.0,50.0835261,19.9038175,206055.0,1.0,21.69,2020.0,9500.0
Podgórze Duchackie ul. Walerego Sławka,Kraków,6.0,50.0242313,19.959569,539000.0,3.0,60.22,2021.0,8950.514779143143
Podgórze Duchackie Wola Duchacka,Kraków,1.0,50.0146222,19.953758,499000.0,3.0,62.28,2021.0,8012.202954399486
Bieńczyce,Kraków,1.0,50.08605125,20.02922626218556,549000.0,2.0,52.6,1998.0,10437.262357414449
Prądnik Czerwony,Kraków,1.0,50.0859419,19.96660060819073,615000.0,3.0,60.51,2010.0,10163.609320773427
Nowa Huta Czyżyny ul. Woźniców,Kraków,3.0,50.0469432,19.997153435836697,711075.0,4.0,74.85,2022.0,9500.0
Podgórze Walerego Sławka,Kraków,1.0,50.0242313,19.959569,499000.0,3.0,62.28,2020.0,8012.202954399486
Nowa Huta Czyżyny Nowohucka 46,Kraków,4.0,50.0558029,19.9993305,489847.0,3.0,52.39,2022.0,9350.009543806069
Podgórze Zabłocie Stanisława Klimeckiego,Kraków,2.0,50.0492242,19.9703793,429000.0,2.0,34.77,2021.0,12338.222605694564
Prądnik Biały Wincentego Danka,Kraków,0.0,50.0934163,19.9257215,293702.0,1.0,24.89,2020.0,11800.0
Bronowice Kołowa,Kraków,4.0,50.0723622,19.898639,746000.0,3.0,62.0,2010.0,12032.258064516129
Bronowice Na Błonie,Kraków,4.0,50.0781015,19.8851235,440000.0,3.0,53.0,1976.0,8301.88679245283
Bieżanów-Prokocim Złocień Agatowa,Kraków,1.0,50.0225216,20.0481276,283000.0,2.0,38.01,2021.0,7445.409102867667
Swoszowice,Kraków,2.0,49.98862724999999,19.95412045066766,590025.0,3.0,78.67,2014.0,7500.0
Nowa Huta Czyżyny Nowohucka 46,Kraków,2.0,50.0558029,19.9993305,361415.0,2.0,35.26,2022.0,10250.0
Prądnik Biały Azory Radzikowskiego,Kraków,1.0,50.0835261,19.9038175,499000.0,2.0,45.0,1980.0,11088.888888888889
Stare Miasto Kazimierz pl. Wolnica,Kraków,2.0,50.0484367,19.9442508,799000.0,3.0,65.0,1910.0,12292.307692307691
Nowa Huta Czyżyny Nowohucka 46,Kraków,2.0,50.0558029,19.9993305,415242.0,2.0,40.71,2022.0,10200.0
Podgórze Duchackie ul. Wiktora Heltmana,Kraków,1.0,50.0275818,19.9696293,630000.0,2.0,54.0,1970.0,11666.666666666666
Nowa Huta Czyżyny,Kraków,5.0,50.0816349,20.016490706002102,616140.0,4.0,68.46,2022.0,9000.0
Podgórze Płaszów ul. Myśliwska,Kraków,1.0,50.0454593,20.0002025,645000.0,4.0,71.79,2022.0,8984.538236523193
Podgórze ul. Wodna,Kraków,1.0,50.0349925,19.9703118,277750.0,2.0,25.25,2022.0,11000.0
Stare Miasto,Kraków,0.0,50.0590398,19.93716829792899,415000.0,1.0,31.25,1936.0,13280.0
Mistrzejowice ul. Piasta Kołodzieja,Kraków,0.0,50.0986433,20.0132206,478629.0,3.0,59.09,2022.0,8099.999999999999
Podgórze ul. płk. Ryszarda Kuklińskiego 7,Kraków,3.0,50.0469432,19.997153435836697,412755.0,2.0,39.31,2020.0,10500.0
Nowa Huta,Kraków,3.0,50.080618650000005,20.12933219800524,415000.0,2.0,40.0,1955.0,10375.0
Podgórze Duchackie Walerego Sławka,Kraków,4.0,50.0242313,19.959569,339000.0,2.0,32.71,2021.0,10363.803118312442
Prądnik Biały Jabłonna,Kraków,2.0,50.0915855,19.9553979,576135.0,3.0,61.95,2020.0,9300.0
Prądnik Biały,Kraków,6.0,50.1035684,19.9536031063012,395770.0,2.0,41.66,2022.0,9500.0
Krowodrza,Kraków,2.0,50.07087985,19.91656311814478,575000.0,4.0,64.0,1980.0,8984.375
Nowa Huta Czyżyny,Kraków,0.0,50.0816349,20.016490706002102,898000.0,4.0,99.85,2010.0,8993.49023535303
Podgórze Duchackie Łużycka,Kraków,10.0,50.0128756,19.9723572,435000.0,3.0,57.0,1980.0,7631.578947368421
Dębniki Ruczaj dr. Jana Piltza,Kraków,1.0,50.0076191,19.8888826,445563.0,3.0,47.91,2022.0,9300.0
Prądnik Biały Stefana Banacha,Kraków,2.0,50.1015333,19.9640995,681059.0,4.0,79.64,2020.0,8551.720241084882
Podgórze Płaszów,Kraków,3.0,50.0345327,19.9754459,291000.0,1.0,29.31,2022.0,9928.35209825998
Dębniki Rzemieślnicza,Kraków,0.0,50.0469432,19.997153435836697,499000.0,2.0,40.86,2020.0,12212.432697014196
Mistrzejowice,Kraków,0.0,50.09742625,20.00960263225891,354351.0,2.0,40.73,2022.0,8700.0
Podgórze ul. Stanisława Klimeckiego,Kraków,2.0,50.0492242,19.9703793,699000.0,3.0,75.86,2021.0,9214.342209332983
Nowa Huta Czyżyny os. Dywizjonu 303,Kraków,0.0,50.0818649,20.0122791,460000.0,2.0,39.65,2019.0,11601.513240857503
Podgórze,Kraków,0.0,50.0430999,19.9529614,369000.0,1.0,28.0,2020.0,13178.57142857143
Stare Miasto Retoryka,Kraków,4.0,50.0580096,19.9284227,1055000.0,3.0,88.0,1900.0,11988.636363636364
Podgórze Rydlówka,Kraków,1.0,50.08780725,19.878046068078184,908019.0,5.0,104.37,2022.0,8700.0
Grzegórzki,Kraków,0.0,50.06497215,19.968825516425383,463320.0,2.0,38.61,2021.0,12000.0
Dębniki Kobierzyn Chmieleniec,Kraków,3.0,50.0169734,19.8980125,799000.0,4.0,84.0,2003.0,9511.904761904761
Podgórze Duchackie Walerego Sławka,Kraków,7.0,50.0242313,19.959569,419000.0,2.0,46.7,2021.0,8972.162740899357
Krowodrza al. Juliusza Słowackiego,Kraków,3.0,50.0740789,19.9352902,1160000.0,4.0,124.0,1930.0,9354.838709677419
Bronowice ul. Bronowicka,Kraków,1.0,50.0778251,19.900680986965757,600484.0,2.0,49.22,2022.0,12200.0
Mistrzejowice os. Bohaterów Września,Kraków,2.0,50.0987686,20.0125241,599000.0,3.0,76.75,1997.0,7804.56026058632
Podgórze,Kraków,3.0,50.0430999,19.9529614,899000.0,3.0,72.0,2010.0,12486.111111111111
Prądnik Biały Ludomira Różyckiego,Kraków,8.0,50.0888224,19.9100185,325000.0,2.0,36.9,1970.0,8807.58807588076
Krowodrza Wrocławska,Kraków,1.0,50.0781206,19.9237274,718245.0,3.0,72.55,2019.0,9900.0
Podgórze Kalwaryjska,Kraków,1.0,50.0443141,19.9480456,299000.0,2.0,38.0,2020.0,7868.421052631579
Prądnik Biały Bociana,Kraków,2.0,50.0923296,19.9560406,750000.0,3.0,79.0,2015.0,9493.67088607595
Podgórze Płaszów Seweryna Goszczyńskiego,Kraków,0.0,50.0372338,19.9917518,472629.5,3.0,49.49,2021.0,9550.0
Nowa Huta Czyżyny ul. Sołtysowska,Kraków,1.0,50.0605887,20.0240353,320892.0,2.0,31.46,2022.0,10200.0
Prądnik Biały Górka Narodowa Kuźnicy Kołłątajowskiej,Kraków,5.0,50.0974858,19.9592694,379000.0,2.0,38.2,2005.0,9921.465968586386
Stare Miasto ul. Krowoderska,Kraków,2.0,50.0724073,19.9317197,689900.0,3.0,68.98,1920.0,10001.449695563932
Dębniki,Kraków,0.0,50.0518611,19.9270367,469000.0,2.0,45.14,2021.0,10389.898094816128
Bronowice Bronowice Małe ul. Katowicka,Kraków,2.0,50.0879652,19.8820694,439732.0,3.0,46.78,2020.0,9400.0
Podgórze Rydlówka,Kraków,1.0,50.08780725,19.878046068078184,615976.0,3.0,63.46,2021.0,9706.52379451623
Podgórze ul. Stanisława Klimeckiego,Kraków,4.0,50.0492242,19.9703793,569000.0,3.0,53.98,2021.0,10540.941089292332
Bronowice Juliusza Lea,Kraków,1.0,50.0833247,19.869783648014888,750000.0,3.0,70.0,2000.0,10714.285714285714
Podgórze Duchackie Wola Duchacka Czarnogórska,Kraków,3.0,50.0197183,19.9709187,449000.0,3.0,53.0,1980.0,8471.698113207547
Prądnik Biały Tonie Gaik,Kraków,1.0,49.9897707,19.9134505,774400.0,4.0,100.58,2015.0,7699.343805925631
Grzegórzki ul. płk. Francesco Nullo,Kraków,3.0,50.0469432,19.997153435836697,826656.0,3.0,75.84,2022.0,10900.0
Bronowice ul. Bronowicka,Kraków,4.0,50.0778251,19.900680986965757,639860.0,2.0,49.22,2022.0,13000.0
Nowa Huta Czyżyny Nowohucka 46,Kraków,3.0,50.0558029,19.9993305,393108.0,2.0,41.82,2022.0,9400.0
Mistrzejowice,Kraków,3.0,50.09742625,20.00960263225891,497420.0,4.0,65.43,2022.0,7602.32309338224
Dębniki Ruczaj dr. Jana Piltza,Kraków,2.0,50.0076191,19.8888826,460653.0,3.0,47.49,2022.0,9700.0
Grzegórzki ul. Dąbska,Kraków,2.0,50.064613,19.9820189,655000.0,3.0,53.0,2014.0,12358.490566037735
Stare Miasto,Kraków,1.0,50.0590398,19.93716829792899,590000.0,2.0,47.0,1935.0,12553.191489361701
Grzegórzki,Kraków,0.0,50.06497215,19.968825516425383,950000.0,4.0,84.4,2001.0,11255.924170616114
Dębniki Ruczaj prof. Władysława Konopczyńskiego,Kraków,4.0,50.0153264,19.8951891,765000.0,3.0,85.7,2007.0,8926.487747957992
Bieżanów-Prokocim Działkowa,Kraków,1.0,50.0217917,20.015634,519000.0,3.0,60.5,2020.0,8578.512396694216
Dębniki Ruczaj ul. Ruczaj,Kraków,2.0,50.0230156,19.9083637,575000.0,2.0,50.0,2016.0,11500.0
Prądnik Czerwony al. 29 Listopada,Kraków,6.0,49.9730627,19.8323374,489000.0,3.0,61.5,1975.0,7951.219512195122
Prądnik Czerwony Reduta,Kraków,0.0,50.1609054,19.743089127291668,523000.0,3.0,58.88,2014.0,8882.472826086956
Stare Miasto Stanisława Staszica,Kraków,2.0,50.0704954,19.9334896,1092000.0,3.0,91.0,1916.0,12000.0
Podgórze,Kraków,0.0,50.0430999,19.9529614,590000.0,3.0,52.0,2017.0,11346.153846153846
Dębniki Kliny-Zacisze ul. Borkowska,Kraków,4.0,50.0033424,19.9040614,415000.0,2.0,53.0,2006.0,7830.188679245283
Dębniki Ludwinów Komandosów,Kraków,4.0,50.0418812,19.9312845,480000.0,3.0,48.4,1970.0,9917.355371900827
Podgórze Rydlówka,Kraków,0.0,50.08780725,19.878046068078184,379000.0,2.0,37.62,2021.0,10074.428495481128
Podgórze ul. płk. Ryszarda Kuklińskiego 7,Kraków,4.0,50.0469432,19.997153435836697,556976.0,2.0,49.73,2020.0,11200.0
Dębniki,Kraków,4.0,50.0518611,19.9270367,489000.0,2.0,45.14,2021.0,10832.964111652636
Prądnik Biały Azory Kazimierza Pużaka,Kraków,3.0,50.0842211,19.9048593,360000.0,2.0,37.1,1970.0,9703.504043126684
Grzegórzki ul. płk. Francesco Nullo,Kraków,5.0,50.0469432,19.997153435836697,681686.0,3.0,57.77,2022.0,11800.0
Krowodrza Łobzów,Kraków,4.0,50.073512,19.9149277,305000.0,1.0,28.08,1974.0,10861.823361823363
Krowodrza Reja,Kraków,7.0,50.086051,19.9433075,390000.0,2.0,37.0,2006.0,10540.54054054054
Krowodrza Augustynka Wichury,Kraków,1.0,50.0789658,19.9310892,547000.0,3.0,64.5,2000.0,8480.62015503876
Grzegórzki ul. płk. Francesco Nullo,Kraków,2.0,50.0469432,19.997153435836697,783622.0,3.0,70.28,2022.0,11150.0
Bronowice Stańczyka,Kraków,5.0,50.0788285,19.8942504,339000.0,1.0,29.33,2021.0,11558.131605864304
Stare Miasto Mikołaja Zyblikiewicza,Kraków,1.0,50.0605245,19.9441727,790000.0,3.0,83.68,1905.0,9440.726577437857
Nowa Huta,Kraków,0.0,50.080618650000005,20.12933219800524,340000.0,2.0,40.0,1950.0,8500.0
Podgórze Duchackie Wola Duchacka Puszkarska,Kraków,5.0,50.0238506,19.9601831,930673.0,5.0,104.57,2021.0,8900.0
Prądnik Biały,Kraków,3.0,50.1035684,19.9536031063012,352611.0,2.0,34.74,2022.0,10150.0
Krowodrza,Kraków,0.0,50.07087985,19.91656311814478,385225.0,2.0,40.55,2021.0,9500.0
Podgórze Stare Podgórze,Kraków,1.0,50.0444203,19.9493098,279000.0,2.0,37.0,1915.0,7540.540540540541
Podgórze Zabłocie,Kraków,3.0,50.0478769,19.961368688357496,499000.0,2.0,46.04,2021.0,10838.401390095569
Mistrzejowice,Kraków,0.0,50.09742625,20.00960263225891,449008.0,3.0,59.09,2022.0,7598.713826366559
Podgórze ul. Zabłocie 27,Kraków,4.0,50.0478769,19.961368688357496,1400190.0,4.0,127.29,2021.0,11000.0
Stare Miasto Radziwiłłowska,Kraków,4.0,50.0629296,19.9469135,845000.0,2.0,82.0,1900.0,10304.878048780487
Podgórze Zabłocie Stanisława Klimeckiego,Kraków,2.0,50.0492242,19.9703793,449000.0,2.0,41.0,2021.0,10951.219512195123
Dębniki Kliny-Zacisze bp. Albina Małysiaka,Kraków,0.0,49.9988318,19.8938784,224900.0,1.0,24.0,2020.0,9370.833333333334
Nowa Huta Czyżyny ul. Woźniców,Kraków,1.0,50.0469432,19.997153435836697,710980.0,4.0,74.84,2022.0,9500.0
Podgórze Norymberska,Kraków,3.0,50.0349778,19.9031173,755000.0,4.0,93.09,2009.0,8110.430765925448
Podgórze Przewóz,Kraków,8.0,50.0435196,20.0712999,690000.0,3.0,62.76,2017.0,10994.263862332697
Grzegórzki ul. Fabryczna,Kraków,8.0,50.058444,19.9702351,1209625.0,4.0,96.77,2021.0,12500.0
Krowodrza Wrocławska,Kraków,2.0,50.0781206,19.9237274,720918.0,3.0,72.82,2019.0,9900.000000000002
Podgórze Duchackie Wola Duchacka,Kraków,0.0,50.0146222,19.953758,606600.0,4.0,80.88,2022.0,7500.0
Podgórze Duchackie Kurdwanów,Kraków,3.0,50.0084756,19.9591527,500000.0,3.0,62.0,1983.0,8064.5161290322585
Bieżanów-Prokocim,Kraków,2.0,50.01706235,20.022991856015395,275275.0,2.0,35.53,2021.0,7747.678018575851
Podgórze Zabłocie Stanisława Klimeckiego,Kraków,3.0,50.0492242,19.9703793,429000.0,1.0,33.28,2021.0,12890.625
Nowa Huta al. Pokoju,Kraków,4.0,49.9752188,19.8281486,570620.0,3.0,55.4,2020.0,10300.0
Podgórze Płaszów Lipska,Kraków,1.0,50.0454593,20.0002025,670000.0,2.0,86.0,1993.0,7790.697674418605
Dębniki Ruczaj ul. dr. Jana Piltza,Kraków,0.0,50.0076191,19.8888826,569000.0,3.0,51.0,2020.0,11156.862745098038
Prądnik Biały Stefana Banacha,Kraków,2.0,50.1015333,19.9640995,417501.0,2.0,44.97,2022.0,9283.98932621748
Prądnik Biały Stefana Banacha,Kraków,1.0,50.1015333,19.9640995,352331.0,2.0,35.34,2022.0,9969.750990379172
Dębniki Ruczaj,Kraków,5.0,50.0230156,19.9083637,680000.0,3.0,66.0,2005.0,10303.030303030304
Podgórze,Kraków,1.0,50.0430999,19.9529614,479000.0,3.0,59.5,1980.0,8050.420168067227
Dębniki Ruczaj Obozowa,Kraków,0.0,50.0206194,19.9145455,440000.0,2.0,55.32,2005.0,7953.723788864787
Bieżanów-Prokocim Wielicka 179,Kraków,4.0,50.0102971,20.00857,422906.0,2.0,44.99,2021.0,9400.0
Podgórze Duchackie Wola Duchacka Walerego Sławka,Kraków,1.0,50.0205244,19.9601785,549000.0,3.0,68.64,2021.0,7998.251748251748
Prądnik Biały Henryka Pachońskiego,Kraków,1.0,50.0949773,19.920405494289955,459000.0,3.0,59.35,1970.0,7733.782645324347
Podgórze ul. płk. Ryszarda Kuklińskiego 7,Kraków,3.0,50.0469432,19.997153435836697,400907.9,2.0,35.51,2020.0,11290.000000000002
Podgórze Duchackie ul. Walerego Sławka,Kraków,8.0,50.0242313,19.959569,419000.0,2.0,41.6,2021.0,10072.115384615385
Prądnik Czerwony Mariana Słoneckiego,Kraków,0.0,50.0895315,19.97688064695305,480000.0,3.0,52.0,1983.0,9230.76923076923
Zwierzyniec Wola Justowska,Kraków,1.0,50.0650619,19.877649,855000.0,4.0,107.0,2020.0,7990.654205607477
Podgórze ul. Stanisława Klimeckiego,Kraków,2.0,50.0492242,19.9703793,709000.0,3.0,69.84,2021.0,10151.775486827033
Mistrzejowice ul. Piasta Kołodzieja,Kraków,1.0,50.0986433,20.0132206,432952.0,2.0,47.06,2020.0,9200.0
Podgórze Rydlówka,Kraków,0.0,50.08780725,19.878046068078184,379000.0,2.0,34.78,2020.0,10897.067280046003
Nowa Huta Czyżyny,Kraków,3.0,50.0816349,20.016490706002102,620000.0,3.0,64.7,1994.0,9582.689335394127
Nowa Huta Czyżyny,Kraków,7.0,50.0816349,20.016490706002102,640000.0,3.0,56.0,2017.0,11428.57142857143
Podgórze Koszykarska Nowohucka Myśliwska Płaszów,Kraków,0.0,50.0397731,19.985886,519000.0,3.0,61.82,2022.0,8395.34131349078
Podgórze Duchackie Walerego Sławka,Kraków,5.0,50.0242313,19.959569,359000.0,2.0,38.86,2021.0,9238.29130211014
Nowa Huta Czyżyny ul. Sołtysowska,Kraków,1.0,50.0605887,20.0240353,332316.0,2.0,32.58,2022.0,10200.0
Prądnik Biały Tonie,Kraków,0.0,50.1121816,19.8994401,728000.0,3.0,65.0,2020.0,11200.0
Krowodrza Henryka Pachońskiego,Kraków,2.0,50.0952985,19.9315645,320000.0,2.0,34.3,2021.0,9329.446064139942
Dębniki Federowicza,Kraków,1.0,50.0142478,19.883217,515570.0,3.0,59.95,2021.0,8600.0
Podgórze ul. płk. Ryszarda Kuklińskiego 7,Kraków,1.0,50.0469432,19.997153435836697,428479.0,2.0,39.31,2020.0,10900.0
Podgórze Duchackie Wola Duchacka ul. Sebastiana Klonowica,Kraków,2.0,50.0197558,19.9528554,414000.0,2.0,33.0,2020.0,12545.454545454546
Łagiewniki-Borek Fałęcki Łagiewniki ul. Totus Tuus,Kraków,1.0,50.0125315,19.9376076,900000.0,4.0,82.0,2022.0,10975.609756097561
Dębniki Kliny-Zacisze ul. Komuny Paryskiej,Kraków,2.0,49.9989124,19.8947491,630000.0,3.0,63.71,2020.0,9888.557526291006
Podgórze Płaszów,Kraków,4.0,50.0345327,19.9754459,399616.0,2.0,35.68,2021.0,11200.0
Krowodrza,Kraków,0.0,50.07087985,19.91656311814478,388600.0,1.0,29.0,2022.0,13400.0
Podgórze ul. Stanisława Klimeckiego,Kraków,4.0,50.0492242,19.9703793,709000.0,3.0,69.67,2021.0,10176.546576718816
Dębniki Ruczaj,Kraków,0.0,50.0230156,19.9083637,569000.0,3.0,51.0,2020.0,11156.862745098038
Bronowice Radzikowskiego ,Kraków,2.0,50.0894188,19.8836634,990000.0,4.0,106.0,2004.0,9339.622641509433
Podgórze ul. płk. Ryszarda Kuklińskiego 7,Kraków,4.0,50.0469432,19.997153435836697,561568.0,2.0,50.14,2020.0,11200.0
Prądnik Czerwony Celarowska,Kraków,2.0,50.081864,19.9546492,359000.0,2.0,36.67,1965.0,9790.019089173711
Grzegórzki Grzegórzecka,Kraków,2.0,50.0587885,19.9500605,585000.0,1.0,45.0,2014.0,13000.0
Bieżanów-Prokocim Bieżanów Telimeny,Kraków,1.0,50.0199039,20.016057,327500.0,2.0,37.5,2021.0,8733.333333333334
Grzegórzki Olsza,Kraków,5.0,50.0789773,19.9605879,510000.0,3.0,61.0,1976.0,8360.655737704918
Prądnik Czerwony ul. Dobrego Pasterza 35,Kraków,1.0,50.0885378,19.9588782,870000.0,4.0,103.0,2002.0,8446.601941747573
Podgórze Zabłocie Stanisława Klimeckiego,Kraków,3.0,50.0492242,19.9703793,429000.0,2.0,34.74,2020.0,12348.87737478411
Prądnik Biały Kuźnicy Kołłątajowskiej,Kraków,2.0,50.0974858,19.9592694,410000.0,3.0,46.0,2008.0,8913.04347826087
Stare Miasto,Kraków,4.0,50.0590398,19.93716829792899,549000.0,2.0,46.0,1920.0,11934.782608695652
Łagiewniki-Borek Fałęcki Cegielniana ul. Klementyny Hoffmanowej 6B,Kraków,4.0,50.02390345,19.933227742089347,699000.0,3.0,68.84,2020.0,10153.98024404416
Prądnik Biały al. 29 Listopada,Kraków,3.0,49.9730627,19.8323374,460875.0,3.0,61.45,2020.0,7500.0
Grzegórzki al. Pokoju,Kraków,5.0,50.0589305,19.9762323,580000.0,3.0,63.4,1996.0,9148.26498422713
Prądnik Biały ul. Kaczorówka,Kraków,3.0,50.1121816,19.8994401,565000.0,2.0,58.6,2002.0,9641.638225255972
Prądnik Biały Henryka Pachońskiego,Kraków,0.0,50.0949773,19.920405494289955,464130.0,3.0,51.57,2022.0,9000.0
Łagiewniki-Borek Fałęcki Borek Fałęcki Nowogródzka,Kraków,0.0,50.0170261,19.9245644,850000.0,3.0,91.3,1960.0,9309.967141292444
Mistrzejowice ul. Piasta Kołodzieja,Kraków,7.0,50.0986433,20.0132206,478629.0,3.0,59.09,2022.0,8099.999999999999
Mistrzejowice ul. Piasta Kołodzieja,Kraków,3.0,50.0986433,20.0132206,478629.0,3.0,59.09,2022.0,8099.999999999999
Podgórze Stanisława Klimeckiego,Kraków,3.0,50.0492242,19.9703793,699000.0,3.0,67.54,2021.0,10349.422564406277
Mistrzejowice ul. Piasta Kołodzieja,Kraków,8.0,50.0986433,20.0132206,458200.0,3.0,58.0,2022.0,7900.0
Bieżanów-Prokocim Podłęska,Kraków,3.0,50.0087167,20.0131964,295500.0,1.0,36.5,2005.0,8095.890410958904
Prądnik Czerwony Dobrego Pasterza,Kraków,2.0,50.0878647,19.9683977,520000.0,3.0,60.0,1980.0,8666.666666666666
Podgórze Zabłocie,Kraków,3.0,50.0478769,19.961368688357496,759000.0,3.0,78.0,2022.0,9730.76923076923
Mistrzejowice,Kraków,0.0,50.09742625,20.00960263225891,330120.0,2.0,36.68,2022.0,9000.0
Grzegórzki Hugona Kołłątaja,Kraków,1.0,50.0469432,19.997153435836697,690000.0,2.0,55.4,1970.0,12454.873646209386
Grzegórzki,Kraków,3.0,50.06497215,19.968825516425383,981000.0,3.0,81.75,2020.0,12000.0
Podgórze Duchackie Walerego Sławka,Kraków,1.0,50.0242313,19.959569,389000.0,2.0,44.25,2021.0,8790.9604519774
Dębniki Kliny-Zacisze,Kraków,1.0,50.00969645000001,19.90590180362617,550000.0,2.0,52.0,2009.0,10576.923076923076
Prądnik Biały Henryka Pachońskiego,Kraków,1.0,50.0949773,19.920405494289955,445000.0,3.0,50.64,2021.0,8787.519747235387
Dębniki Ruczaj,Kraków,4.0,50.0230156,19.9083637,352700.0,2.0,35.27,2021.0,10000.0
Prądnik Biały Wincentego Danka,Kraków,6.0,50.0934163,19.9257215,440412.0,3.0,44.94,2020.0,9800.0
Bieżanów-Prokocim Agatowa,Kraków,4.0,50.0225216,20.0481276,265000.0,2.0,35.43,2021.0,7479.537115438894
Podgórze Duchackie Łużycka,Kraków,1.0,50.0128756,19.9723572,500000.0,3.0,59.5,1978.0,8403.361344537816
Mistrzejowice,Kraków,1.0,50.09742625,20.00960263225891,369000.0,3.0,47.0,1972.0,7851.063829787234
Stare Miasto,Kraków,1.0,50.0590398,19.93716829792899,590000.0,2.0,63.0,1900.0,9365.079365079366
Grzegórzki Grzegórzecka,Kraków,1.0,50.0587885,19.9500605,790625.0,3.0,63.25,2021.0,12500.0
Krowodrza Rusznikarska,Kraków,7.0,50.0853032,19.9270113,205000.0,1.0,20.3,2000.0,10098.522167487685
Podgórze Walerego Sławka,Kraków,3.0,50.0242313,19.959569,349000.0,1.0,35.35,2021.0,9872.701555869873
Prądnik Czerwony,Kraków,1.0,50.0859419,19.96660060819073,468000.0,3.0,53.0,1980.0,8830.188679245282
Grzegórzki Lotnicza,Kraków,0.0,50.0741066,19.9704442,480000.0,3.0,55.7,1966.0,8617.594254937163
Zwierzyniec Wola Justowska Niezapominajek,Kraków,2.0,50.068948,19.8418174,650000.0,3.0,75.0,2008.0,8666.666666666666
Podgórze ul. Stanisława Klimeckiego,Kraków,5.0,50.0492242,19.9703793,749000.0,3.0,75.86,2021.0,9873.451094120748
Grzegórzki ul. Grzegórzecka,Kraków,7.0,50.0587885,19.9500605,1096160.0,3.0,84.32,2020.0,13000.000000000002
Grzegórzki ul. Fabryczna,Kraków,3.0,50.058444,19.9702351,895974.0,3.0,75.93,2021.0,11799.999999999998
Prądnik Biały Kazimierza Pużaka,Kraków,3.0,50.0842211,19.9048593,320000.0,2.0,38.0,1980.0,8421.052631578947
Bronowice Bronowice Małe ul. ks. Stanisława Truszkowskiego,Kraków,0.0,50.0933216,19.8731968,568592.0,4.0,71.53,2022.0,7949.000419404446
Podgórze,Kraków,1.0,50.0430999,19.9529614,559000.0,3.0,53.84,2021.0,10382.61515601783
Bieżanów-Prokocim ul. Erazma Jerzmanowskiego,Kraków,1.0,50.0102367,20.0086943,195000.0,1.0,25.9,1975.0,7528.95752895753
Podgórze Koszykarska Nowohucka Myśliwska Płaszów,Kraków,5.0,50.0397731,19.985886,475000.0,3.0,57.99,2021.0,8191.067425418175
Nowa Huta Czyżyny ul. Woźniców,Kraków,4.0,50.0469432,19.997153435836697,353600.0,1.0,27.2,2022.0,13000.0
Podgórze Duchackie Wola Duchacka ul. Tarnobrzeska,Kraków,2.0,50.0187081,19.9525814,465000.0,3.0,62.0,1984.0,7500.0
Bieńczyce os. Dywizjonu 303,Kraków,1.0,50.0847983,20.0136936,645000.0,3.0,70.0,2019.0,9214.285714285714
Prądnik Czerwony,Kraków,2.0,50.0859419,19.96660060819073,495000.0,2.0,59.0,2008.0,8389.830508474577
Nowa Huta Czyżyny ul. Sołtysowska,Kraków,2.0,50.0605887,20.0240353,597229.5,4.0,74.19,2021.0,8050.0
Stare Miasto Kazimierz,Kraków,5.0,50.051855,19.9449466,380000.0,2.0,33.36,1920.0,11390.887290167866
Prądnik Czerwony Strzelców,Kraków,2.0,50.09671465,19.97438606437184,515000.0,3.0,53.0,1980.0,9716.981132075472
Krowodrza Łobzów,Kraków,3.0,50.073512,19.9149277,845000.0,4.0,65.0,1970.0,13000.0
Prądnik Biały,Kraków,1.0,50.1035684,19.9536031063012,503885.0,3.0,62.16,2021.0,8106.258043758045
Prądnik Czerwony,Kraków,1.0,50.0859419,19.96660060819073,530000.0,3.0,64.0,1996.0,8281.25
Stare Miasto Oskara Kolberga,Kraków,3.0,50.0716418,19.9347471,1096338.0,3.0,92.91,1930.0,11800.0
Grzegórzki ul. Fabryczna,Kraków,2.0,50.058444,19.9702351,885472.0,3.0,75.04,2021.0,11799.999999999998
Nowa Huta os. Szkolne,Kraków,3.0,50.0774958,20.0482373,359000.0,2.0,44.0,1957.0,8159.090909090909
Grzegórzki Fabryczna,Kraków,2.0,50.058444,19.9702351,991760.0,3.0,86.24,2020.0,11500.0
Bronowice Stańczyka,Kraków,3.0,50.0788285,19.8942504,405000.0,2.0,37.0,2021.0,10945.945945945947
Mistrzejowice ul. Piasta Kołodzieja,Kraków,6.0,50.0986433,20.0132206,712166.0,4.0,82.81,2020.0,8600.0
Prądnik Biały 29 Listopada,Kraków,4.0,52.3511111,19.9441667,969000.0,4.0,104.0,2020.0,9317.307692307691
Podgórze Bonarka Puszkarska,Kraków,2.0,50.0238506,19.9601831,418000.0,2.0,44.0,2021.0,9500.0
Dębniki Kliny-Zacisze,Kraków,1.0,50.00969645000001,19.90590180362617,355000.0,3.0,45.5,2020.0,7802.197802197802
Dębniki Kliny-Zacisze prof. Wojciecha Marii Bartla,Kraków,1.0,49.9989363,19.8974534,412000.0,2.0,53.0,2001.0,7773.584905660377
Prądnik Czerwony Dobrego Pasterza,Kraków,1.0,50.0878647,19.9683977,468000.0,3.0,52.5,1980.0,8914.285714285714
Śródmieście Aleja 29 Listopada,Kraków,2.0,51.728259,18.5076219,616920.0,3.0,58.2,2020.0,10600.0
Bronowice ks. Stanisława Truszkowskiego,Kraków,2.0,50.0933216,19.8731968,394020.0,2.0,43.78,2022.0,9000.0
Podgórze Duchackie ul. Walerego Sławka,Kraków,1.0,50.0242313,19.959569,519000.0,3.0,62.45,2021.0,8310.648518815051
Grzegórzki ul. Fabryczna,Kraków,4.0,50.058444,19.9702351,910815.0,3.0,74.05,2021.0,12300.0
Nowa Huta Czyżyny,Kraków,2.0,50.0816349,20.016490706002102,415975.0,2.0,47.54,2022.0,8750.0
Podgórze Duchackie Marii i Bolesława Wysłouchów,Kraków,3.0,50.0084756,19.9591527,500000.0,3.0,62.0,1983.0,8064.5161290322585
Podgórze Józefińska,Kraków,0.0,50.0456768,19.9530885,620000.0,3.0,64.0,1890.0,9687.5
Bronowice Bronowicka,Kraków,5.0,50.0778251,19.900680986965757,480000.0,3.0,45.0,1970.0,10666.666666666666
Podgórze Duchackie Wola Duchacka,Kraków,4.0,50.0146222,19.953758,479000.0,3.0,55.2,2021.0,8677.536231884058
Dębniki Ruczaj Lubostroń,Kraków,3.0,50.0164056,19.8896205,399000.0,2.0,40.76,2013.0,9789.008832188421
Krowodrza Juliusza Lea,Kraków,1.0,50.0703596,19.9188768,750000.0,3.0,70.0,2005.0,10714.285714285714
Podgórze Duchackie Wola Duchacka Bochenka,Kraków,1.0,50.0127186,19.9775244,449000.0,3.0,55.0,2012.0,8163.636363636364
Łagiewniki-Borek Fałęcki Łagiewniki Klementyny Hoffmanowej,Kraków,4.0,50.0236568,19.9320379,479000.0,2.0,51.2,2020.0,9355.46875
Podgórze Duchackie Wola Duchacka Walerego Sławka,Kraków,5.0,50.0205244,19.9601785,359000.0,2.0,38.86,2021.0,9238.29130211014
Zwierzyniec Bielany ul. Księcia Józefa,Kraków,1.0,50.0462733,19.8721668,599000.0,4.0,80.02,2021.0,7485.628592851787
Bronowice Stańczyka,Kraków,6.0,50.0788285,19.8942504,399000.0,2.0,36.7,2021.0,10871.93460490463
Stare Miasto Kazimierz Wiślisko,Kraków,1.0,50.0469432,19.997153435836697,990000.0,2.0,75.0,1937.0,13200.0
Krowodrza,Kraków,0.0,50.07087985,19.91656311814478,599850.0,3.0,46.5,2021.0,12900.0
Krowodrza,Kraków,8.0,50.07087985,19.91656311814478,490000.0,3.0,47.9,1974.0,10229.64509394572
Bieżanów-Prokocim Bieżanów Mariana Domagały,Kraków,3.0,50.033059,20.0510649,419000.0,2.0,45.59,2020.0,9190.611976310594
Zwierzyniec Wola Justowska,Kraków,2.0,50.0650619,19.877649,1100000.0,5.0,131.36,2020.0,8373.934226552983
Dębniki,Kraków,0.0,50.0518611,19.9270367,379000.0,1.0,35.43,2021.0,10697.149308495626
Podgórze ul. Stanisława Klimeckiego,Kraków,4.0,50.0492242,19.9703793,729000.0,3.0,71.73,2021.0,10163.111668757841
Podgórze Stare Podgórze ul. Stanisława Mitery,Kraków,0.0,50.0387673,19.9403193,510000.0,2.0,51.16,1960.0,9968.725566849102
Prądnik Biały ul. Zygmunta Glogera,Kraków,0.0,50.0991994,19.9296689,430000.0,2.0,39.0,2017.0,11025.641025641025
Prądnik Czerwony Lublańska,Kraków,1.0,50.0851795,19.961948,423000.0,2.0,44.73,2021.0,9456.740442655937
Nowa Huta,Kraków,1.0,50.080618650000005,20.12933219800524,375000.0,2.0,48.0,1957.0,7812.5
Mistrzejowice,Kraków,4.0,50.09742625,20.00960263225891,575000.0,3.0,70.5,1994.0,8156.0283687943265
Bieżanów-Prokocim Rydygiera (okolice),Kraków,1.0,50.0469432,19.997153435836697,589000.0,4.0,76.22,1990.0,7727.630543164524
Podgórze Zabłocie Stanisława Klimeckiego,Kraków,3.0,50.0492242,19.9703793,709000.0,3.0,69.67,2021.0,10176.546576718816
Grzegórzki Grzegórzecka,Kraków,2.0,50.0587885,19.9500605,1003557.0,3.0,81.59,2021.0,12300.0
Krowodrza Kazimierza Pużaka,Kraków,3.0,50.0842211,19.9048593,360000.0,2.0,37.5,1970.0,9600.0
Podgórze ul. Koszykarska,Kraków,1.0,50.0498929,19.9906026,621800.0,3.0,62.0,2021.0,10029.032258064517
Prądnik Czerwony Promienistych,Kraków,1.0,50.0858369,19.9714303,499000.0,2.0,58.0,2020.0,8603.448275862069
Dębniki Stare Dębniki Kazimierza Pułaskiego,Kraków,2.0,50.0506457,19.9293082,850000.0,3.0,64.0,2008.0,13281.25
Śródmieście Centrum,Kraków,3.0,50.0087995,19.9597568,754600.0,3.0,77.0,1885.0,9800.0
Prądnik Biały al. 29 Listopada,Kraków,7.0,49.9730627,19.8323374,834784.0,4.0,109.84,2020.0,7600.0
Mistrzejowice Piasta Kołodzieja,Kraków,1.0,50.0986433,20.0132206,530000.0,3.0,48.5,2020.0,10927.835051546392
Grzegórzki ul. płk. Francesco Nullo,Kraków,1.0,50.0469432,19.997153435836697,699017.0,3.0,57.77,2022.0,12100.0
Zwierzyniec Podłącze,Kraków,1.0,50.0469432,19.997153435836697,1512720.0,5.0,132.09,2020.0,11452.191687485805
Prądnik Czerwony Dobrego Pasterza,Kraków,1.0,50.0878647,19.9683977,468000.0,3.0,52.5,1980.0,8914.285714285714
Prądnik Biały Żabiniec Żabiniec,Kraków,2.0,50.0844088,19.9449087,569000.0,3.0,53.0,2016.0,10735.849056603774
Podgórze ul. Koszykarska,Kraków,1.0,50.0498929,19.9906026,621800.0,3.0,62.18,2021.0,10000.0
Bieżanów-Prokocim Bieżanów ul. Mała Góra. osiedle Nowy Bieżanów,Kraków,2.0,50.0163822,20.0281804,415000.0,2.0,48.0,1995.0,8645.833333333334
Dębniki Ruczaj prof. Michała Bobrzyńskiego,Kraków,5.0,50.0206269,19.8981903,680000.0,3.0,66.0,2005.0,10303.030303030304
Stare Miasto ul. Szlak,Kraków,2.0,50.0711279,19.9355011,715000.0,2.0,57.0,2010.0,12543.859649122807
Nowa Huta Czyżyny ul. Woźniców,Kraków,4.0,50.0469432,19.997153435836697,568765.0,3.0,59.87,2022.0,9500.0
Grzegórzki Sądowa,Kraków,2.0,50.0469432,19.997153435836697,690000.0,3.0,68.0,1982.0,10147.058823529413
Bronowice ul. Bronowicka,Kraków,2.0,50.0778251,19.900680986965757,653838.0,2.0,55.41,2022.0,11800.0
Prądnik Biały,Kraków,4.0,50.1035684,19.9536031063012,475000.0,3.0,46.5,1970.0,10215.053763440861
Podgórze Duchackie ul. Walerego Sławka,Kraków,8.0,50.0242313,19.959569,449000.0,2.0,46.7,2021.0,9614.561027837259
Dębniki,Kraków,0.0,50.0518611,19.9270367,489000.0,2.0,43.9,2021.0,11138.952164009112
Dębniki Rzemieślnicza,Kraków,0.0,50.0469432,19.997153435836697,699000.0,3.0,64.89,2021.0,10772.07582061951
Podgórze,Kraków,0.0,50.0430999,19.9529614,623267.0,3.0,70.03,2021.0,8900.0
Prądnik Biały,Kraków,4.0,50.1035684,19.9536031063012,519000.0,2.0,56.0,2014.0,9267.857142857143
Stare Miasto Aleja Juliusza Słowackiego,Kraków,3.0,50.0639468,19.94306594383988,699000.0,2.0,54.0,1964.0,12944.444444444445
Krowodrza Armii Krajowej,Kraków,3.0,50.0700651,19.89798857748124,365000.0,2.0,38.88,1980.0,9387.860082304525
Mistrzejowice ul. Piasta Kołodzieja,Kraków,1.0,50.0986433,20.0132206,484538.0,3.0,59.09,2022.0,8200.0
Nowa Huta Czyżyny ul. Woźniców,Kraków,3.0,50.0469432,19.997153435836697,353600.0,1.0,27.2,2022.0,13000.0
Krowodrza Królewska,Kraków,3.0,50.073512,19.9149277,420000.0,2.0,35.5,1973.0,11830.985915492958
Prądnik Biały Szymona Zimorowicza,Kraków,5.0,50.0950503,19.9284425,399000.0,2.0,42.6,2020.0,9366.197183098591
Podgórze,Kraków,1.0,50.0430999,19.9529614,449000.0,2.0,43.9,2021.0,10227.790432801823
Stare Miasto,Kraków,2.0,50.0590398,19.93716829792899,1100000.0,3.0,96.7,1935.0,11375.387797311272
Nowa Huta Czyżyny Nowohucka 46,Kraków,0.0,50.0558029,19.9993305,381667.0,2.0,40.82,2022.0,9350.0
Nowa Huta Czyżyny ul. Sołtysowska,Kraków,1.0,50.0605887,20.0240353,349600.0,2.0,34.96,2022.0,10000.0
Bieżanów-Prokocim Agatowa,Kraków,2.0,50.0225216,20.0481276,286000.0,2.0,38.02,2020.0,7522.356654392424
Podgórze Duchackie Wola Duchacka Walerego Sławka,Kraków,2.0,50.0205244,19.9601785,379000.0,2.0,38.86,2021.0,9752.95934122491
Mistrzejowice,Kraków,3.0,50.09742625,20.00960263225891,435150.0,2.0,48.18,2020.0,9031.755915317559
Podgórze Duchackie Kurdwanów Marii i Bolesława Wysłouchów,Kraków,10.0,50.0084756,19.9591527,295000.0,1.0,36.9,1998.0,7994.579945799458
Prądnik Biały,Kraków,3.0,50.1035684,19.9536031063012,890000.0,3.0,78.0,2007.0,11410.25641025641
Prądnik Czerwony ul. Promienistych,Kraków,0.0,50.0858369,19.9714303,441686.0,2.0,45.07,2021.0,9800.0
Krowodrza Stańczyka,Kraków,3.0,50.0779139,19.8928868,319000.0,1.0,27.41,2021.0,11638.08828894564
Krowodrza Mazowiecka,Kraków,1.0,52.3511111,19.9441667,690000.0,3.0,70.98,1990.0,9721.048182586643
Podgórze Płaszów,Kraków,2.0,50.0345327,19.9754459,356000.0,2.0,39.57,2022.0,8996.714682840535
Podgórze Zabłocie,Kraków,3.0,50.0478769,19.961368688357496,369000.0,2.0,28.36,2021.0,13011.283497884344
Nowa Huta Czyżyny ul. Woźniców,Kraków,0.0,50.0469432,19.997153435836697,424680.0,2.0,35.39,2022.0,12000.0
Podgórze ul. Myśliwska,Kraków,2.0,50.0454593,20.0002025,399000.0,2.0,38.59,2022.0,10339.466182948949
Podgórze Zabłocie,Kraków,2.0,50.0478769,19.961368688357496,1115000.0,4.0,106.0,2018.0,10518.867924528302
Grzegórzki Ogrodnicza,Kraków,0.0,50.0714312,19.9797967,564000.0,2.0,47.0,2018.0,12000.0
Prądnik Czerwony Strzelców,Kraków,0.0,50.09671465,19.97438606437184,355000.0,2.0,34.5,2008.0,10289.855072463768
Prądnik Biały,Kraków,1.0,50.1035684,19.9536031063012,476649.0,2.0,50.2,2021.0,9495.0
Krowodrza al. Juliusza Słowackiego,Kraków,3.0,50.0740789,19.9352902,1080000.0,3.0,118.0,1930.0,9152.542372881357
Prądnik Biały,Kraków,0.0,50.1035684,19.9536031063012,539000.0,3.0,69.0,2007.0,7811.594202898551
Podgórze Duchackie Wola Duchacka,Kraków,2.0,50.0146222,19.953758,465000.0,3.0,62.0,1984.0,7500.0
Dębniki Kliny-Zacisze Bartla,Kraków,1.0,49.9989363,19.8974534,390000.0,1.0,43.5,2017.0,8965.51724137931
Podgórze Duchackie Kurdwanów Marii i Bolesława Wysłouchów,Kraków,5.0,50.0084756,19.9591527,449000.0,3.0,52.5,1980.0,8552.380952380952
Podgórze Duchackie Czarnogórska,Kraków,3.0,50.0197183,19.9709187,537000.0,4.0,57.5,1980.0,9339.130434782608
Podgórze Duchackie Wola Duchacka,Kraków,0.0,50.0146222,19.953758,695000.0,4.0,62.0,2014.0,11209.677419354839
Prądnik Biały,Kraków,3.0,50.1035684,19.9536031063012,379000.0,2.0,38.0,2019.0,9973.684210526315
Nowa Huta Aleja Jana Pawła II,Kraków,0.0,54.3540491,16.4464192,568000.0,2.0,50.22,2009.0,11310.234966148944
Stare Miasto rynek Dębnicki,Kraków,2.0,50.0516925,19.926981225313348,1290000.0,3.0,96.0,1930.0,13437.5
Podgórze rynek Podgórski,Kraków,0.0,50.03682635,19.96109494977822,349000.0,1.0,35.0,1900.0,9971.42857142857
Grzegórzki ul. płk. Francesco Nullo,Kraków,2.0,50.0469432,19.997153435836697,856992.0,3.0,75.84,2022.0,11300.0
Śródmieście,Kraków,4.0,50.055,19.9430556,628400.0,2.0,62.84,2020.0,10000.0
Śródmieście bp. Jana Prandoty,Kraków,1.0,50.0791121,19.949934073837213,627445.0,3.0,68.95,2021.0,9100.0
Bieżanów-Prokocim Bieżanów Aleksandry,Kraków,4.0,50.0125868,20.0194086,292000.0,2.0,35.0,1980.0,8342.857142857143
Podgórze Koszykarska,Kraków,1.0,50.0498929,19.9906026,598000.0,4.0,78.2,1997.0,7647.058823529412
Podgórze Wielicka 181,Kraków,1.0,50.0336609,19.9712973,435000.0,3.0,55.0,2000.0,7909.090909090909
Krowodrza Nawojki,Kraków,2.0,50.0686102,19.912086,740000.0,3.0,68.0,1976.0,10882.35294117647
Podgórze,Kraków,4.0,50.0430999,19.9529614,399121.0,1.0,39.47,2021.0,10112.00912085128
Bieżanów-Prokocim,Kraków,1.0,50.01706235,20.022991856015395,354981.0,2.0,38.17,2022.0,9300.0
Prądnik Czerwony ks. Józefa Meiera,Kraków,2.0,50.0969632,19.9652068,495000.0,2.0,60.0,2008.0,8250.0
Prądnik Czerwony ul. Śliczna,Kraków,10.0,50.0469432,19.997153435836697,1033916.4,3.0,87.03,2021.0,11880.0
Podgórze,Kraków,4.0,50.0430999,19.9529614,779000.0,3.0,80.58,2021.0,9667.41126830479
Bronowice Jabłonkowska,Kraków,0.0,50.0798771,19.8870225,599900.0,4.0,72.16,1979.0,8313.470066518847
Prądnik Biały Górka Narodowa Stefana Banacha,Kraków,1.0,50.1015333,19.9640995,450063.0,2.0,47.4,2021.0,9495.0
Podgórze Duchackie Wola Duchacka,Kraków,4.0,50.0146222,19.953758,499000.0,3.0,55.23,2021.0,9034.944776389644
Zwierzyniec Emaus,Kraków,1.0,50.0669379,19.8879255,1207500.0,5.0,102.0,2020.0,11838.235294117647
Zwierzyniec Salwator ul. Kornela Ujejskiego,Kraków,0.0,50.0563943,19.9237745,275000.0,1.0,26.0,1930.0,10576.923076923076
Krowodrza Stachiewicza,Kraków,0.0,50.0849634,19.9163524,315000.0,2.0,37.0,1970.0,8513.513513513513
Bieżanów-Prokocim Wielicka 179,Kraków,2.0,50.0102971,20.00857,353188.0,2.0,38.39,2021.0,9200.0
Dębniki Kliny-Zacisze Bartla,Kraków,1.0,49.9989363,19.8974534,399000.0,1.0,43.6,2007.0,9151.37614678899
Dębniki Kliny-Zacisze ul. Mieczykowa 26,Kraków,2.0,49.9976035,19.9013198,475000.0,2.0,55.0,2008.0,8636.363636363636
Mistrzejowice ul. Piasta Kołodzieja,Kraków,7.0,50.0986433,20.0132206,353742.0,2.0,40.66,2022.0,8700.0
Nowa Huta Słoneczne,Kraków,3.0,50.0771546,20.0393941,410000.0,2.0,47.89,1994.0,8561.286281060764
Krowodrza Długa,Kraków,1.0,50.2658017,19.785956,1500000.0,4.0,122.07,1930.0,12288.031457360532
Podgórze,Kraków,3.0,50.0430999,19.9529614,429000.0,2.0,34.53,2020.0,12423.979148566463
Podgórze Płaszów ul. Przewóz,Kraków,2.0,50.0435196,20.0712999,530950.0,3.0,57.4,2022.0,9250.0
Podgórze Duchackie Wola Duchacka Przykopy,Kraków,0.0,50.0150815,19.9473587,415000.0,2.0,44.9,2000.0,9242.761692650334
Stare Miasto Grabowskiego,Kraków,2.0,50.0670168,19.9276013,414000.0,2.0,36.0,2020.0,11500.0
Prądnik Biały Azory Radzikowskiego,Kraków,0.0,50.0835261,19.9038175,248140.0,1.0,26.12,2020.0,9500.0
Grzegórzki ul. Fabryczna,Kraków,2.0,50.058444,19.9702351,1096640.0,4.0,95.36,2021.0,11500.0
Mistrzejowice ul. Piasta Kołodzieja,Kraków,7.0,50.0986433,20.0132206,452928.0,2.0,47.18,2020.0,9600.0
Krowodrza,Kraków,4.0,50.07087985,19.91656311814478,797000.0,4.0,70.0,1994.0,11385.714285714286
Krowodrza Krowodrza Górka Prądnicka,Kraków,0.0,50.0469432,19.997153435836697,415000.0,2.0,46.0,1965.0,9021.739130434782
Zwierzyniec Wola Justowska,Kraków,1.0,50.0650619,19.877649,911838.0,5.0,110.0,2017.0,8289.436363636363
Bieżanów-Prokocim Kozłówek,Kraków,4.0,50.0185195,19.9815103,385000.0,2.0,44.31,1985.0,8688.783570300158
Łagiewniki-Borek Fałęcki Borek Fałęcki Żywiecka,Kraków,0.0,50.014117,19.9179187,1263000.0,4.0,115.0,2019.0,10982.608695652174
Grzegórzki Olsza Młyńska,Kraków,2.0,50.0833641,19.9705682,360000.0,2.0,33.6,1977.0,10714.285714285714
Śródmieście Bohomolca,Kraków,4.0,50.0951792,19.988752,419000.0,2.0,33.27,2015.0,12593.928464081755
Stare Miasto Stefana Batorego,Kraków,3.0,50.0673699,19.9326149,1650000.0,4.0,127.0,1905.0,12992.125984251968
Podgórze Zabłocie,Kraków,4.0,50.0478769,19.961368688357496,469000.0,2.0,39.07,2021.0,12004.095213718965
Podgórze Przewóz,Kraków,1.0,50.0435196,20.0712999,963072.0,4.0,109.44,2022.0,8800.0
Wzgórza Krzesławickie os. Na Wzgórzach,Kraków,0.0,50.0955215,20.0643647,355000.0,2.0,47.0,1970.0,7553.191489361702
Krowodrza Stanisława Konarskiego,Kraków,0.0,50.0840413,19.97816046757792,200000.0,1.0,16.2,1930.0,12345.67901234568
Mistrzejowice,Kraków,0.0,50.09742625,20.00960263225891,431973.0,2.0,53.33,2022.0,8100.0
Prądnik Biały Azory Marii Jaremy,Kraków,2.0,50.0865006,19.9079982,309000.0,2.0,37.1,1983.0,8328.840970350404
Nowa Huta os. Hutnicze,Kraków,3.0,50.0727517,20.0454692,299000.0,1.0,36.0,1954.0,8305.555555555555
Podgórze Mariana Domagały,Kraków,3.0,50.033059,20.0510649,479000.0,2.0,60.0,2019.0,7983.333333333333
Prądnik Biały 29 Listopada,Kraków,1.0,52.3511111,19.9441667,449968.0,2.0,47.39,2021.0,9494.99894492509
Nowa Huta Czyżyny ul. Sołtysowska,Kraków,2.0,50.0605887,20.0240353,943680.0,3.0,78.64,2021.0,12000.0
Grzegórzki Olsza,Kraków,0.0,50.0789773,19.9605879,387000.0,2.0,35.0,1920.0,11057.142857142857
Prądnik Biały Henryka Pachońskiego,Kraków,5.0,50.0949773,19.920405494289955,439999.0,2.0,53.0,1982.0,8301.867924528302
Grzegórzki ul. Dąbska,Kraków,1.0,50.064613,19.9820189,662284.0,4.0,67.58,2021.0,9800.0
Bieżanów-Prokocim Prokocim,Kraków,3.0,50.0128958,20.0258584,535000.0,3.0,64.64,1992.0,8276.60891089109
Wzgórza Krzesławickie os. Na Stoku,Kraków,3.0,50.0943732,20.0561059,469000.0,2.0,52.48,2014.0,8936.73780487805
Bronowice,Kraków,0.0,50.0833247,19.869783648014888,520000.0,3.0,59.95,1980.0,8673.894912427022
Zwierzyniec Wola Justowska,Kraków,1.0,50.0650619,19.877649,468000.0,2.0,36.0,2021.0,13000.0
Prądnik Biały,Kraków,2.0,50.1035684,19.9536031063012,418861.0,2.0,47.4,2021.0,8836.729957805908
Dębniki prof. Michała Bobrzyńskiego,Kraków,4.0,50.0206269,19.8981903,734999.0,3.0,69.0,2006.0,10652.159420289856
Dębniki Ludwinów Komandosów,Kraków,1.0,50.0418812,19.9312845,675000.0,3.0,60.0,1980.0,11250.0
Zwierzyniec Wola Justowska ul. Królowej Jadwigi,Kraków,1.0,50.0650619,19.877649,1240000.0,4.0,105.0,2021.0,11809.52380952381
Grzegórzki,Kraków,1.0,50.06497215,19.968825516425383,655326.0,4.0,66.87,2021.0,9800.0
Swoszowice Opatkowice,Kraków,1.0,49.9918149,19.9130275,375000.0,3.0,50.0,2015.0,7500.0
Nowa Huta os. Spółdzielcze,Kraków,3.0,50.0777259,20.0272257,388000.0,2.0,52.0,1960.0,7461.538461538462
Podgórze Duchackie,Kraków,0.0,50.01618985,19.959420960382204,349000.0,2.0,37.85,1980.0,9220.607661822985
Nowa Huta Czyżyny ul. Sołtysowska,Kraków,2.0,50.0605887,20.0240353,322905.0,2.0,31.35,2022.0,10300.0
Podgórze Duchackie Walerego Sławka,Kraków,0.0,50.0242313,19.959569,329000.0,1.0,35.35,2021.0,9306.930693069307
Stare Miasto Kleparz,Kraków,1.0,50.0700397,19.9419902,1500000.0,4.0,122.07,1930.0,12288.031457360532
Prądnik Biały Azory Eljasza Walerego Radzikowskiego,Kraków,3.0,50.0835261,19.9038175,515000.0,2.0,56.0,2000.0,9196.42857142857
Podgórze Zabłocie Stanisława Klimeckiego,Kraków,3.0,50.0492242,19.9703793,469000.0,2.0,38.97,2021.0,12034.898639979472
Podgórze Rzemieślnicza,Kraków,1.0,50.0469432,19.997153435836697,639000.0,3.0,64.89,2021.0,9847.43411927878
Stare Miasto,Kraków,2.0,50.0590398,19.93716829792899,1160000.0,4.0,124.3,1937.0,9332.260659694288
Bieńczyce os. Strusia,Kraków,2.0,50.0884948,20.0139544,307000.0,2.0,36.6,1960.0,8387.978142076503
Grzegórzki Fabryczna,Kraków,3.0,50.058444,19.9702351,915000.0,3.0,77.57,2021.0,11795.79734433415
Podgórze,Kraków,3.0,50.0430999,19.9529614,360000.0,2.0,34.0,1980.0,10588.235294117647
Stare Miasto ul. Mikołaja Zyblikiewicza,Kraków,0.0,50.0605245,19.9441727,960000.0,3.0,95.19,1927.0,10085.092971950835
Podgórze Łużycka,Kraków,10.0,50.0128756,19.9723572,435000.0,3.0,58.51,1980.0,7434.626559562468
Bieńczyce,Kraków,2.0,50.08605125,20.02922626218556,307000.0,2.0,36.6,1970.0,8387.978142076503
Podgórze Zabłocie,Kraków,2.0,50.0478769,19.961368688357496,385344.0,2.0,35.68,2020.0,10800.0
Nowa Huta Czyżyny Nowohucka 46,Kraków,1.0,50.0558029,19.9993305,387624.0,2.0,41.68,2022.0,9300.0
Bronowice Eljasza Walerego Radzikowskiego,Kraków,4.0,50.0894188,19.8836634,360000.0,2.0,34.0,2016.0,10588.235294117647
Krowodrza Marii Jaremy,Kraków,1.0,50.0865006,19.9079982,425000.0,2.0,38.0,1960.0,11184.21052631579
Nowa Huta os. Piastów,Kraków,1.0,50.0980554,20.017104994988298,369000.0,3.0,47.0,1970.0,7851.063829787234
Nowa Huta Czyżyny Nowohucka 46,Kraków,3.0,50.0558029,19.9993305,601236.0,4.0,70.32,2022.0,8550.0
Bieżanów-Prokocim Złocień Agatowa,Kraków,0.0,50.0225216,20.0481276,350000.0,2.0,45.0,2020.0,7777.777777777777
Mistrzejowice Osiedle Kalinowe 21,Kraków,2.0,50.09163015,20.0117754,280000.0,2.0,36.02,1980.0,7773.459189339255
Bronowice ul. Bronowicka 5,Kraków,4.0,50.0778251,19.900680986965757,1015590.0,3.0,83.94,2021.0,12098.999285203718
Podgórze ul. Stanisława Klimeckiego,Kraków,5.0,50.0492242,19.9703793,469000.0,2.0,40.06,2021.0,11707.438841737394
Podgórze ul. Stanisława Klimeckiego,Kraków,5.0,50.0492242,19.9703793,749000.0,3.0,74.67,2021.0,10030.80219633052
Podgórze Konrada Wallenroda,Kraków,0.0,50.0176748,20.0011197,440000.0,3.0,57.0,1980.0,7719.298245614035
Dębniki Ruczaj Bułgarska,Kraków,1.0,50.0223447,19.917936,458000.0,2.0,42.59,2015.0,10753.698051185724
Mistrzejowice os. Bohaterów Września,Kraków,3.0,50.0987686,20.0125241,240000.0,1.0,25.4,1985.0,9448.818897637795
Prądnik Biały Górka Narodowa ul. ks. Józefa Meiera,Kraków,0.0,50.0978022,19.9645917,283000.0,1.0,31.51,2005.0,8981.275785464932
Krowodrza Kazimierza Wielkiego,Kraków,0.0,50.073573,19.9193678,599850.0,3.0,46.5,2022.0,12900.0
Prądnik Biały Górka Narodowa Siewna,Kraków,4.0,50.0919132,19.9556743,963000.0,3.0,78.0,2008.0,12346.153846153846
Nowa Huta Czyżyny Centralna,Kraków,1.0,50.0635686,20.0037147,445000.0,3.0,50.0,1980.0,8900.0
Podgórze Płaszów Myśliwska,Kraków,1.0,50.0454593,20.0002025,417000.0,3.0,56.05,2023.0,7439.78590544157
Prądnik Biały,Kraków,0.0,50.1035684,19.9536031063012,449208.0,3.0,54.73,2021.0,8207.710579207016
Grzegórzki ul. Fabryczna,Kraków,3.0,50.058444,19.9702351,475741.0,1.0,35.77,2021.0,13299.999999999998
Dębniki Ruczaj dr. Jana Piltza,Kraków,2.0,50.0076191,19.8888826,569000.0,3.0,50.71,2020.0,11220.666535200158
Podgórze Zabłocie,Kraków,2.0,50.0478769,19.961368688357496,569000.0,3.0,54.66,2021.0,10409.806073911453
Podgórze Duchackie ul. Walerego Sławka,Kraków,6.0,50.0242313,19.959569,389000.0,2.0,38.86,2021.0,10010.293360782296
Podgórze Bonarka Puszkarska,Kraków,7.0,50.0238506,19.9601831,438874.0,2.0,40.78,2021.0,10761.991172143207
Prądnik Biały ul. Macieja Słomczyńskiego,Kraków,3.0,50.0990111,19.9555971,365000.0,2.0,47.0,2001.0,7765.95744680851
Prądnik Biały Stefana Banacha,Kraków,0.0,50.1015333,19.9640995,485135.0,3.0,62.4,2021.0,7774.599358974359
Nowa Huta Czyżyny ul. Sołtysowska,Kraków,2.0,50.0605887,20.0240353,352086.0,2.0,34.86,2022.0,10100.0
Podgórze Zabłocie Stanisława Klimeckiego,Kraków,2.0,50.0492242,19.9703793,709000.0,3.0,69.64,2021.0,10180.93049971281
Swoszowice Opatkowice ul. Jerzego Smoleńskiego,Kraków,0.0,49.9823114,19.9203851,259594.0,2.0,32.86,2021.0,7900.0
Nowa Huta Czyżyny ul. Woźniców,Kraków,1.0,50.0469432,19.997153435836697,659548.0,4.0,71.69,2022.0,9200.0
Grzegórzki ul. Fabryczna,Kraków,4.0,50.058444,19.9702351,1057910.0,3.0,88.9,2021.0,11900.0
Nowa Huta Czyżyny Nowohucka 46,Kraków,1.0,50.0558029,19.9993305,479320.0,3.0,52.1,2022.0,9200.0
Prądnik Biały Górka Narodowa,Kraków,2.0,50.0974858,19.9592694,335000.0,2.0,37.0,2000.0,9054.054054054053
Nowa Huta Czyżyny Nowohucka 46,Kraków,0.0,50.0558029,19.9993305,438748.0,2.0,47.69,2022.0,9200.0
Dębniki Ruczaj,Kraków,1.0,50.0230156,19.9083637,385000.0,2.0,36.68,2020.0,10496.18320610687
Prądnik Biały Kuźnicy Kołłątajowskiej,Kraków,2.0,50.0974858,19.9592694,335000.0,2.0,37.0,2000.0,9054.054054054053
Stare Miasto Skawińska,Kraków,1.0,50.047494,19.9419376,979000.0,3.0,103.6,1841.0,9449.80694980695
Prądnik Czerwony Promienistych,Kraków,1.0,50.0858369,19.9714303,417000.0,2.0,43.04,2021.0,9688.661710037175
Krowodrza,Kraków,2.0,50.07087985,19.91656311814478,1230000.0,4.0,131.0,2008.0,9389.312977099236
Grzegórzki Olsza Pilotów,Kraków,4.0,50.0789571,19.9715267,750000.0,3.0,56.3,2017.0,13321.492007104796
Podgórze,Kraków,3.0,50.0430999,19.9529614,1125000.0,4.0,86.0,2018.0,13081.39534883721
Prądnik Czerwony Reduta ,Kraków,4.0,50.0469432,19.997153435836697,425000.0,2.0,32.0,2020.0,13281.25
Prądnik Biały ul. Stefana Banacha,Kraków,3.0,50.1021791,19.9559231,410265.0,3.0,50.65,2022.0,8100.0
Krowodrza,Kraków,1.0,50.07087985,19.91656311814478,455000.0,3.0,51.0,1980.0,8921.56862745098
Nowa Huta Czyżyny Nowohucka 46,Kraków,4.0,50.0558029,19.9993305,404177.0,2.0,42.77,2022.0,9450.011690437223
Prądnik Czerwony,Kraków,2.0,50.0859419,19.96660060819073,525000.0,3.0,64.0,2004.0,8203.125
Mistrzejowice ul. Piasta Kołodzieja,Kraków,0.0,50.0986433,20.0132206,390150.0,2.0,45.9,2022.0,8500.0
Nowa Huta Czyżyny ul. Sołtysowska,Kraków,1.0,50.0605887,20.0240353,357120.0,2.0,38.4,2021.0,9300.0
Łagiewniki-Borek Fałęcki Łagiewniki Żywiecka,Kraków,3.0,50.014117,19.9179187,647000.0,3.0,67.0,2020.0,9656.716417910447
Stare Miasto,Kraków,0.0,50.0590398,19.93716829792899,400000.0,1.0,32.21,2020.0,12418.503570319775
Stare Miasto Krowoderska,Kraków,1.0,50.0724073,19.9317197,715000.0,3.0,65.5,1988.0,10916.030534351145
Prądnik Biały Górka Narodowa Meiera,Kraków,2.0,50.0969632,19.9652068,495000.0,2.0,59.0,2008.0,8389.830508474577
Prądnik Czerwony Dobrego Pasterza,Kraków,0.0,50.0878647,19.9683977,408000.0,2.0,33.0,2019.0,12363.636363636364
Krowodrza,Kraków,2.0,50.07087985,19.91656311814478,779000.0,3.0,69.0,1930.0,11289.855072463768
Podgórze Duchackie Wola Duchacka,Kraków,6.0,50.0146222,19.953758,359000.0,2.0,38.86,2021.0,9238.29130211014
Krowodrza,Kraków,0.0,50.07087985,19.91656311814478,399000.0,1.0,37.0,1933.0,10783.783783783783
Grzegórzki,Kraków,0.0,50.06497215,19.968825516425383,799000.0,3.0,78.0,2007.0,10243.589743589744
Bieżanów-Prokocim Bieżanów,Kraków,3.0,50.0128958,20.0258584,406000.0,2.0,40.12,2014.0,10119.64107676969
Podgórze Płaszów Lipska,Kraków,1.0,50.0454593,20.0002025,312146.5,1.0,31.69,2021.0,9850.0
Krowodrza Armii Krajowej,Kraków,1.0,50.0700651,19.89798857748124,720000.0,3.0,62.9,1998.0,11446.740858505565
Mistrzejowice Osiedle Bohaterów Września,Kraków,1.0,50.0987686,20.0125241,561000.0,3.0,66.0,1992.0,8500.0
Mistrzejowice,Kraków,4.0,50.09742625,20.00960263225891,402979.0,3.0,51.01,2022.0,7900.0
Grzegórzki ul. Grzegórzecka,Kraków,2.0,50.0587885,19.9500605,437570.0,1.0,32.9,2020.0,13300.0
Bieńczyce os. Kazimierzowskie,Kraków,5.0,50.0861204,20.0244875,318000.0,2.0,37.0,1978.0,8594.594594594595
Zwierzyniec Wola Justowska Królowej Jadwigi,Kraków,2.0,50.0650619,19.877649,999000.0,4.0,100.0,2003.0,9990.0
Podgórze Duchackie Walerego Sławka,Kraków,5.0,50.0242313,19.959569,489000.0,2.0,55.5,2020.0,8810.81081081081
Bronowice Kaspra Żelechowskiego,Kraków,1.0,50.0745879,19.9031263,525000.0,2.0,50.0,1959.0,10500.0
Bronowice Bronowicka,Kraków,3.0,50.0778251,19.900680986965757,498500.0,3.0,43.9,1975.0,11355.353075170844
Prądnik Czerwony Ugorek Janusza Meissnera,Kraków,1.0,50.07607065,19.97947475,765709.0,3.0,85.0,2021.0,9008.341176470589
Grzegórzki,Kraków,2.0,50.06497215,19.968825516425383,345000.0,2.0,37.2,1960.0,9274.193548387097
Prądnik Biały Górka Narodowa,Kraków,1.0,50.0974858,19.9592694,352440.0,2.0,35.6,2022.0,9900.0
Podgórze Duchackie Walerego Sławka,Kraków,3.0,50.0242313,19.959569,729000.0,4.0,84.17,2020.0,8661.04312700487
Mistrzejowice ul. Piasta Kołodzieja,Kraków,1.0,50.0986433,20.0132206,651671.0,4.0,82.49,2020.0,7900.000000000001
Nowa Huta Czyżyny Sołtysowska,Kraków,3.0,50.0605887,20.0240353,439000.0,2.0,46.0,2013.0,9543.478260869566
Podgórze Duchackie ul. Walerego Sławka,Kraków,6.0,50.0242313,19.959569,449000.0,2.0,44.26,2021.0,10144.600090375057
Podgórze Płaszów Myśliwska,Kraków,0.0,50.0454593,20.0002025,381000.0,2.0,44.5,2023.0,8561.797752808989
Nowa Huta Tysiąclecia ,Kraków,2.0,54.3540491,16.4464192,390000.0,3.0,47.3,1970.0,8245.243128964059
Prądnik Czerwony Reduta,Kraków,3.0,50.1609054,19.743089127291668,2400000.0,5.0,194.0,2017.0,12371.134020618556
Podgórze ul. Stanisława Klimeckiego,Kraków,2.0,50.0492242,19.9703793,549000.0,3.0,50.8,2021.0,10807.08661417323
Podgórze Zabłocie Stanisława Klimeckiego,Kraków,2.0,50.0492242,19.9703793,599000.0,3.0,61.11,2021.0,9801.996399934544
Nowa Huta,Kraków,3.0,50.080618650000005,20.12933219800524,440000.0,3.0,56.0,1950.0,7857.142857142857
Zwierzyniec Wola Justowska,Kraków,2.0,50.0650619,19.877649,785000.0,3.0,67.74,2019.0,11588.426335990553
Bronowice,Kraków,2.0,50.0833247,19.869783648014888,1085500.0,4.0,83.09,2019.0,13064.147310145625
Stare Miasto Kazimierz,Kraków,1.0,50.051855,19.9449466,999999.0,3.0,78.78,1897.0,12693.564356435643
Grzegórzki Olsza ul. Śliczna,Kraków,5.0,50.0469432,19.997153435836697,666750.0,3.0,63.5,2013.0,10500.0
Bieńczyce,Kraków,0.0,50.08605125,20.02922626218556,399000.0,3.0,47.0,1970.0,8489.36170212766
Prądnik Czerwony ul. Promienistych,Kraków,3.0,50.0858369,19.9714303,668390.0,3.0,75.1,2021.0,8900.0
Bronowice Sosnowiecka,Kraków,1.0,50.092611,19.8930919,715000.0,3.0,70.24,2018.0,10179.384965831436
Dębniki ul. Kobierzyńska,Kraków,5.0,50.0264036,19.9118498,499000.0,2.0,45.14,2021.0,11054.49712007089
Prądnik Czerwony ks. Józefa Meiera,Kraków,2.0,50.0969632,19.9652068,495000.0,2.0,60.0,2008.0,8250.0
Podgórze Duchackie Wola Duchacka,Kraków,3.0,50.0146222,19.953758,543120.0,2.0,67.89,2020.0,8000.0
Nowa Huta os. Złotego Wieku,Kraków,1.0,50.096467,20.002283,445000.0,4.0,59.0,1980.0,7542.372881355932
Dębniki Jana Brożka,Kraków,5.0,50.0304228,19.9268681,369000.0,2.0,30.0,1985.0,12300.0
Zwierzyniec Podłącze,Kraków,1.0,50.0469432,19.997153435836697,1084910.0,3.0,94.34,2020.0,11500.0
Podgórze Zabłocie Lwowska,Kraków,1.0,50.0440431,19.9582859,850000.0,4.0,96.0,1950.0,8854.166666666666
Prądnik Czerwony Promienistych,Kraków,1.0,50.0858369,19.9714303,606001.0,3.0,68.09,2021.0,8900.0
Grzegórzki ul. Grzegórzecka,Kraków,1.0,50.0587885,19.9500605,414700.0,1.0,31.9,2020.0,13000.0
Grzegórzki Mogilska,Kraków,3.0,50.0660367,19.96449446212494,569000.0,2.0,48.69,1960.0,11686.17785993017
Podgórze Płaszów Koszykarska,Kraków,3.0,50.0498929,19.9906026,415000.0,2.0,32.0,2015.0,12968.75
Mistrzejowice,Kraków,9.0,50.09742625,20.00960263225891,832195.0,4.0,91.45,2020.0,9100.0
Bronowice Na Błonie,Kraków,10.0,50.0781015,19.8851235,415000.0,2.0,42.0,1975.0,9880.952380952382
Mistrzejowice ul. Piasta Kołodzieja,Kraków,5.0,50.0986433,20.0132206,452790.0,3.0,55.9,2022.0,8100.0
Dębniki Kapelanka,Kraków,3.0,50.0404627,19.92406030447332,619000.0,2.0,56.0,2010.0,11053.57142857143
Podgórze Duchackie Wola Duchacka ul. Pszenna,Kraków,3.0,50.0217433,19.9551565,359000.0,2.0,45.77,1993.0,7843.56565435875
Dębniki Skotniki ul. Aleksandra Zelwerowicza,Kraków,1.0,50.0179578,19.8790929,695000.0,5.0,90.6,2022.0,7671.081677704195
Bieńczyce,Kraków,8.0,50.08605125,20.02922626218556,325000.0,2.0,37.0,1970.0,8783.783783783783
Krowodrza,Kraków,5.0,50.07087985,19.91656311814478,989175.0,5.0,82.5,2022.0,11990.0
Mistrzejowice os. Oświecenia,Kraków,5.0,50.0939358,19.9897424,480000.0,3.0,53.28,2008.0,9009.009009009009
Prądnik Biały,Kraków,2.0,50.1035684,19.9536031063012,952000.0,3.0,78.0,2012.0,12205.128205128205
Mistrzejowice,Kraków,3.0,50.09742625,20.00960263225891,572520.0,4.0,73.4,2020.0,7799.999999999999
Dębniki Rzemieślnicza,Kraków,1.0,50.0469432,19.997153435836697,639000.0,3.0,64.89,2021.0,9847.43411927878
Wzgórza Krzesławickie,Kraków,2.0,50.0984135,20.09201112156821,399000.0,2.0,47.0,1970.0,8489.36170212766
Podgórze Duchackie Wola Duchacka Walerego Sławka,Kraków,1.0,50.0205244,19.9601785,719000.0,4.0,88.74,2021.0,8102.321388325446
Grzegórzki ul. Fabryczna,Kraków,2.0,50.058444,19.9702351,725625.0,4.0,58.05,2021.0,12500.0
Podgórze,Kraków,3.0,50.0430999,19.9529614,469000.0,2.0,39.96,2020.0,11736.736736736737
Stare Miasto św. Sebastiana,Kraków,0.0,50.0197558,19.9528554,319000.0,1.0,25.06,1910.0,12729.449321628093
Grzegórzki ul. Fabryczna,Kraków,1.0,50.058444,19.9702351,862960.0,3.0,75.04,2021.0,11499.999999999998
Bieńczyce os. Kazimierzowskie,Kraków,8.0,50.0861204,20.0244875,310000.0,2.0,37.22,1970.0,8328.855454056958
Podgórze Walerego Sławka,Kraków,8.0,50.0242313,19.959569,599000.0,3.0,68.66,2021.0,8724.147975531605
Bieżanów-Prokocim Walerego Sławka,Kraków,0.0,50.0205244,19.9601785,489000.0,3.0,55.2,2021.0,8858.695652173912
Grzegórzki Kazimierza Kordylewskiego,Kraków,3.0,50.0603359,19.9623163,890000.0,3.0,75.45,2008.0,11795.891318754142
Nowa Huta,Kraków,3.0,50.080618650000005,20.12933219800524,440000.0,3.0,56.0,1956.0,7857.142857142857
Bieżanów-Prokocim Bieżanów Podłęska,Kraków,1.0,50.0087167,20.0131964,528000.0,3.0,66.0,2005.0,8000.0
Wzgórza Krzesławickie,Kraków,0.0,50.0984135,20.09201112156821,355000.0,2.0,46.6,1960.0,7618.025751072961
Bronowice,Kraków,8.0,50.0833247,19.869783648014888,521087.2,2.0,40.52,2021.0,12860.0
Dębniki Ruczaj,Kraków,0.0,50.0230156,19.9083637,368000.0,2.0,42.0,2020.0,8761.904761904761
Bieńczyce,Kraków,5.0,50.08605125,20.02922626218556,318000.0,2.0,37.0,1970.0,8594.594594594595
Podgórze Duchackie Wola Duchacka Henryka Kamieńskiego,Kraków,7.0,50.0288704,19.9568753,369000.0,2.0,38.86,2021.0,9495.625321667525
Bieńczyce Osiedle Górali,Kraków,0.0,50.0808003,20.0379026,429000.0,2.0,52.0,1954.0,8250.0
Podgórze Zabłocie,Kraków,4.0,50.0478769,19.961368688357496,469000.0,2.0,40.96,2021.0,11450.1953125
Podgórze Bagrowa,Kraków,1.0,50.0361989,20.000282,720000.0,3.0,58.54,2017.0,12299.282541851726
Nowa Huta Czyżyny Sikorki,Kraków,6.0,50.0625885,20.0200767,464000.0,2.0,49.08,2019.0,9453.95273023635
Prądnik Czerwony ul. Śliczna,Kraków,2.0,50.0469432,19.997153435836697,800445.24,3.0,85.19,2021.0,9396.0
Zwierzyniec Rzepichy,Kraków,0.0,50.062516,19.8348066,849000.0,4.0,110.0,2020.0,7718.181818181818
Grzegórzki Dąbie Pokoju,Kraków,2.0,50.0589305,19.9762323,464333.15,3.0,60.7,2023.0,7649.640032948929
Prądnik Biały Zygmunta Glogera,Kraków,3.0,50.1029142,19.9284465,515933.0,3.0,57.97,2021.0,8900.0
Nowa Huta Osiedle Na Lotnisku,Kraków,4.0,50.0872939,20.016875087529087,349000.0,2.0,36.0,1970.0,9694.444444444445
Nowa Huta Czyżyny ul. Centralna,Kraków,0.0,50.0635686,20.0037147,408317.44,3.0,52.35,2022.0,7799.7600764087865
Prądnik Biały,Kraków,0.0,50.1035684,19.9536031063012,415000.0,2.0,47.0,1960.0,8829.787234042553
Podgórze Duchackie Kurdwanów Wysłouchów,Kraków,10.0,50.0084756,19.9591527,287000.0,1.0,37.0,1980.0,7756.756756756757
Dębniki Ruczaj,Kraków,2.0,50.0230156,19.9083637,540000.0,3.0,60.0,2005.0,9000.0
Mistrzejowice,Kraków,7.0,50.09742625,20.00960263225891,905632.0,4.0,99.52,2020.0,9100.0
Prądnik Czerwony,Kraków,1.0,50.0859419,19.96660060819073,417000.0,2.0,43.0,2021.0,9697.67441860465
Bronowice,Kraków,4.0,50.0833247,19.869783648014888,712000.0,5.0,80.0,2000.0,8900.0
Łagiewniki-Borek Fałęcki,Kraków,1.0,50.0199633,19.9294446,280000.0,1.0,23.0,2020.0,12173.91304347826
Dębniki Ruczaj ul. dr. Jana Piltza,Kraków,0.0,50.0076191,19.8888826,688522.17,3.0,62.61,2020.0,10997.0
Nowa Huta Czyżyny Sikorki,Kraków,4.0,50.0625885,20.0200767,390000.0,2.0,40.59,2019.0,9608.277900960828
Stare Miasto Oskara Kolberga,Kraków,3.0,50.0716418,19.9347471,655574.0,2.0,51.62,1930.0,12700.0
Nowa Huta,Kraków,4.0,50.080618650000005,20.12933219800524,415000.0,2.0,51.0,1956.0,8137.254901960784
Bieńczyce,Kraków,7.0,50.08605125,20.02922626218556,398500.0,2.0,45.0,1970.0,8855.555555555555
Podgórze Płaszów,Kraków,0.0,50.0345327,19.9754459,583575.0,4.0,62.75,2022.0,9300.0
Prądnik Biały,Kraków,4.0,50.1035684,19.9536031063012,462000.0,3.0,46.5,1979.0,9935.483870967742
małopolskie,Kraków,4.0,50.0619474,19.9368564,434790.0,2.0,48.31,2019.0,9000.0
Stare Miasto ul. Krowoderska,Kraków,2.0,50.0724073,19.9317197,346000.0,1.0,31.43,1920.0,11008.590518612791
Nowa Huta Czyżyny Nowohucka 46,Kraków,0.0,50.0558029,19.9993305,409248.0,2.0,40.32,2022.0,10150.0
Dębniki Ruczaj Rzemieślnicza,Kraków,1.0,50.0469432,19.997153435836697,559000.0,3.0,53.84,2020.0,10382.61515601783
Bronowice Stańczyka,Kraków,10.0,50.0788285,19.8942504,563166.0,2.0,45.49,2021.0,12379.995603429325
Prądnik Biały Azory Radzikowskiego,Kraków,0.0,50.0835261,19.9038175,750000.0,3.0,62.26,2019.0,12046.257629296499
Krowodrza Marii Bobrzeckiej,Kraków,0.0,50.0871202,19.9427982,429000.0,3.0,48.0,1977.0,8937.5
Prądnik Biały Zygmunta Glogera,Kraków,3.0,50.1029142,19.9284465,388024.0,2.0,42.64,2021.0,9100.0
Krowodrza,Kraków,1.0,50.07087985,19.91656311814478,599000.0,3.0,69.0,1930.0,8681.159420289856
Krowodrza Żabiniec,Kraków,2.0,50.0851745,19.9473248,409000.0,2.0,35.0,2017.0,11685.714285714286
Dębniki Chmieleniec,Kraków,3.0,50.0169734,19.8980125,799000.0,4.0,84.0,2002.0,9511.904761904761
Nowa Huta Czyżyny Sołtysowska,Kraków,3.0,50.0605887,20.0240353,399000.0,2.0,49.46,2021.0,8067.124949454104
Grzegórzki ul. Fabryczna,Kraków,4.0,50.058444,19.9702351,656255.0,3.0,51.17,2021.0,12824.9951143248
Podgórze Duchackie Walerego Sławka,Kraków,4.0,50.0242313,19.959569,529000.0,3.0,57.81,2020.0,9150.665974744854
Nowa Huta Czyżyny Nowohucka 46,Kraków,2.0,50.0558029,19.9993305,396324.0,2.0,39.24,2022.0,10100.0
Zwierzyniec Salwator,Kraków,0.0,50.0550023,19.908853,1690000.0,4.0,166.0,1930.0,10180.722891566265
Krowodrza Stefana Banacha,Kraków,2.0,50.1015333,19.9640995,681745.0,4.0,80.0,2020.0,8521.8125
Prądnik Czerwony Rakowice Ułanów,Kraków,1.0,50.0769258,19.9842469,593140.0,3.0,63.1,2018.0,9400.0
Nowa Huta Czyżyny ul. Woźniców,Kraków,4.0,50.0469432,19.997153435836697,359710.0,1.0,27.67,2022.0,13000.0
Grzegórzki,Kraków,4.0,50.06497215,19.968825516425383,579000.0,2.0,54.16,1955.0,10690.546528803547
Podgórze Duchackie,Kraków,2.0,50.01618985,19.959420960382204,399000.0,2.0,42.47,2021.0,9394.866964916411
Nowa Huta Czyżyny ul. Woźniców,Kraków,1.0,50.0469432,19.997153435836697,353600.0,1.0,27.2,2022.0,13000.0
Podgórze Stare Podgórze Lwowska,Kraków,2.0,50.0451784,19.9530094,644410.0,2.0,49.57,2020.0,13000.0
Mistrzejowice,Kraków,0.0,50.09742625,20.00960263225891,337456.0,2.0,36.68,2022.0,9200.0
Krowodrza,Kraków,1.0,50.07087985,19.91656311814478,499000.0,1.0,41.48,1920.0,12029.89392478303
Krowodrza,Kraków,0.0,50.07087985,19.91656311814478,444110.0,3.0,49.9,2021.0,8900.0
małopolskie,Kraków,2.0,50.0619474,19.9368564,517686.0,4.0,66.37,2018.0,7799.999999999999
Mistrzejowice,Kraków,1.0,50.09742625,20.00960263225891,454993.0,3.0,59.09,2022.0,7700.0
Dębniki Bobrzyńskiego,Kraków,0.0,50.0175591,19.8933062,785000.0,3.0,68.72,2006.0,11423.166472642608
Mistrzejowice,Kraków,3.0,50.09742625,20.00960263225891,488720.0,3.0,61.06,2020.0,8003.9305601048145
Krowodrza,Kraków,4.0,50.07087985,19.91656311814478,607000.0,3.0,53.0,2016.0,11452.830188679245
Łagiewniki-Borek Fałęcki,Kraków,1.0,50.0199633,19.9294446,458000.0,3.0,52.92,2020.0,8654.572940287226
Dębniki Ruczaj Ruczaj,Kraków,3.0,50.0230156,19.9083637,530000.0,2.0,45.47,2017.0,11656.036947437871
Podgórze Zabłocie Stanisława Klimeckiego,Kraków,2.0,50.0492242,19.9703793,659000.0,2.0,70.0,2021.0,9414.285714285714
Krowodrza Królewska,Kraków,3.0,50.073512,19.9149277,499000.0,1.0,39.06,1930.0,12775.21761392729
Mistrzejowice,Kraków,4.0,50.09742625,20.00960263225891,530868.0,3.0,68.06,2020.0,7800.0
Prądnik Czerwony ul. Powstańców,Kraków,3.0,50.1024655,19.9867738,619000.0,3.0,66.0,1970.0,9378.787878787878
Bronowice ul. Bronowicka,Kraków,4.0,50.0778251,19.900680986965757,876148.0,3.0,75.53,2022.0,11600.0
Podgórze Zabłocie,Kraków,2.0,50.0478769,19.961368688357496,649000.0,3.0,67.55,2021.0,9607.698001480385
Grzegórzki Fabryczna,Kraków,4.0,50.058444,19.9702351,775060.0,2.0,59.62,2020.0,13000.0
Podgórze Płaszów,Kraków,1.0,50.0345327,19.9754459,530672.5,3.0,57.37,2022.0,9250.0
Dębniki Rydlówka,Kraków,4.0,50.08780725,19.878046068078184,449000.0,2.0,43.9,2021.0,10227.790432801823
Podgórze Zabłocie płk. Ryszarda Kuklińskiego,Kraków,2.0,50.04450785,19.9731901,541512.0,2.0,50.14,2020.0,10800.0
Prądnik Biały Żabiniec,Kraków,0.0,50.0844088,19.9449087,715000.0,3.0,58.1,2015.0,12306.368330464717
Podgórze os. Kliny Borkowskie,Kraków,2.0,50.0023553,19.9029041,520000.0,2.0,56.19,2005.0,9254.315714539955
Podgórze Duchackie Wola Duchacka Walerego Sławka,Kraków,1.0,50.0205244,19.9601785,369000.0,2.0,44.21,2021.0,8346.527934856367
Mistrzejowice,Kraków,1.0,50.09742625,20.00960263225891,369000.0,3.0,47.0,1970.0,7851.063829787234
Bieżanów-Prokocim,Kraków,2.0,50.01706235,20.022991856015395,439082.0,3.0,55.58,2020.0,7900.0
Krowodrza Lubelska,Kraków,1.0,50.0739495,19.9311416,430000.0,1.0,32.5,2016.0,13230.76923076923
Prądnik Biały Azory os. Centrum A,Kraków,1.0,50.0720051,20.0409261,314000.0,1.0,37.29,1955.0,8420.488066505766
Stare Miasto,Kraków,1.0,50.0590398,19.93716829792899,475000.0,2.0,49.0,1910.0,9693.877551020409
Prądnik Biały Żabiniec,Kraków,0.0,50.0844088,19.9449087,370000.0,1.0,32.57,2014.0,11360.147374884864
Grzegórzki Fabryczna,Kraków,2.0,50.058444,19.9702351,451003.0,1.0,33.91,2021.0,13300.000000000002
Bronowice Bronowice Małe,Kraków,4.0,50.0898376,19.870812874428267,440000.0,3.0,53.0,1972.0,8301.88679245283
Podgórze ul. Stanisława Klimeckiego,Kraków,3.0,50.0492242,19.9703793,749000.0,3.0,74.05,2021.0,10114.78730587441
Prądnik Czerwony ul. Dobrego Pasterza 129,Kraków,2.0,50.09001195,19.97819635829815,520000.0,3.0,60.0,1980.0,8666.666666666666
Bieńczyce os. Kalinowe,Kraków,8.0,50.0891906,20.0148022,242000.0,1.0,25.0,1980.0,9680.0
Grzegórzki,Kraków,0.0,50.06497215,19.968825516425383,255000.0,1.0,20.0,1960.0,12750.0
Podgórze Duchackie Nad Potokiem,Kraków,0.0,50.0124945,20.0113398,409000.0,3.0,47.0,1970.0,8702.127659574468
Prądnik Biały Adama Vetulaniego,Kraków,1.0,50.0947269,19.9247728,471000.0,3.0,51.62,2021.0,9124.370399070129
Bronowice Józefa Chełmońskiego,Kraków,1.0,50.0863097,19.9139884,742235.0,3.0,78.13,2010.0,9500.0
Stare Miasto,Kraków,3.0,50.0590398,19.93716829792899,1564000.0,6.0,136.0,1930.0,11500.0
Nowa Huta Czyżyny ul. Woźniców,Kraków,0.0,50.0469432,19.997153435836697,586150.0,3.0,61.7,2022.0,9500.0
Dębniki,Kraków,1.0,50.0518611,19.9270367,319000.0,1.0,34.84,2004.0,9156.142365097588
Prądnik Biały Stefana Banacha,Kraków,0.0,50.1015333,19.9640995,684500.0,4.0,79.4,2020.0,8620.906801007555
Stare Miasto Studencka,Kraków,2.0,50.0626308,19.9319297,1490000.0,6.0,122.0,1950.0,12213.11475409836
Podgórze Duchackie Walerego Sławka,Kraków,6.0,50.0242313,19.959569,539000.0,3.0,60.22,2020.0,8950.514779143143
Dębniki Ruczaj,Kraków,1.0,50.0230156,19.9083637,541000.0,3.0,58.76,2021.0,9206.943498978897
Prądnik Biały,Kraków,2.0,50.1035684,19.9536031063012,499000.0,2.0,53.1,2003.0,9397.363465160075
Bronowice ul. Bronowicka 5,Kraków,1.0,50.0778251,19.900680986965757,511058.0,2.0,43.31,2021.0,11800.0
Podgórze Płaszów ul. Przewóz,Kraków,0.0,50.0435196,20.0712999,386584.0,2.0,40.48,2022.0,9550.0
Bieńczyce os. Na Lotnisku,Kraków,0.0,50.0856399,20.014031476216765,359000.0,2.0,38.88,1970.0,9233.539094650205
Mistrzejowice Osiedle Piastów 19,Kraków,3.0,50.1012069,20.017364300393496,499000.0,4.0,56.0,1970.0,8910.714285714286
Podgórze Walerego Sławka,Kraków,2.0,50.0242313,19.959569,389000.0,2.0,46.54,2021.0,8358.401375161151
Prądnik Biały Azory,Kraków,3.0,50.089965,19.90583066597115,359000.0,2.0,37.4,1980.0,9598.930481283423
